outageId,outageGisId,outageRegionId,outageMunicipality,outageArea,outageCause,numCustomersOut,crewEta,dateServiceOut,dateServiceRestored,estDateServiceRestored,crewEtr,outageLastUpdated,outageRegionName,outageLatitude,outageLongitude,nearestSubstationId,outageToSubstationDistance,substationName,substationCity,typeOfSubstation,statusOfSubstation,substationLatitude,substationLongitude
2527941,2502004.0,1602896846,Nanaimo,2300 block MILL RD,Equipment failure,4,,2024-12-20 15:26:00+00:00,2025-01-08 20:11:24+00:00,2025-01-08 19:30:00+00:00,2025-01-08 19:30:00+00:00,2025-01-08 19:09:03+00:00,North VI,49.168143,-124.008628,200044,0.8521682286534765,JINGLE POT,NOT AVAILABLE,SUBSTATION,IN SERVICE,49.17,-124.02
2529684,2503713.0,2072041405,Nakusp,"MT SCAIA RADIO SITE, BENCH CREEK  HWY 6",Tree down across our wires,2,2025-01-02 19:30:00+00:00,2024-12-23 22:40:56+00:00,2025-01-03 02:12:19+00:00,2025-01-03 02:00:00+00:00,2025-01-03 02:00:00+00:00,2025-01-02 22:58:15+00:00,Okanagan/Kootenay,49.90809,-118.316474,200310,11.99328245023852,MONASHEE,NOT AVAILABLE,SUBSTATION,IN SERVICE,49.92,-118.15
2532863,2506815.0,1602896846,Nanaimo,"East of BOUNDARY CRS, North of BOWEN RD, West of WADDINGTON RD, South of ST PATRICK CRS",Under investigation,11,2025-01-02 00:30:00+00:00,2025-01-01 21:05:00+00:00,2025-01-02 02:11:03+00:00,2025-01-02 00:50:00+00:00,2025-01-02 00:50:00+00:00,2025-01-02 00:43:23+00:00,North VI,49.178969,-123.965981,200045,2.7600291677435473,NORTHFIELD,NANAIMO,SUBSTATION,IN SERVICE,49.19,-124.0
2532865,2506817.0,521980323,Vancouver,6600 block LANARK ST,Under investigation,1,2025-01-01 22:45:00+00:00,2025-01-01 21:21:00+00:00,2025-01-02 00:50:28+00:00,,,2025-01-01 22:48:42+00:00,Lower Mainland,49.223523,-123.07545,200098,0.7923843765060699,MAINWARING,VANCOUVER,SUBSTATION,IN SERVICE,49.23,-123.08
2532866,2506818.0,1602896846,Courtenay,3300 block BRIGANTINE CRS,Tree down across our wires,4,2025-01-02 00:20:00+00:00,2025-01-01 21:32:00+00:00,2025-01-02 02:11:03+00:00,,,2025-01-02 00:17:02+00:00,North VI,49.548019,-124.669094,200042,14.389379479948746,NILE CREEK TERMINAL,NOT AVAILABLE,SUBSTATION,IN SERVICE,49.42,-124.64
2532867,2506819.0,521980323,"Belcarra, North Vancouver, Port Moody","North of COOMBE LN, East of MT SEYMOUR RD",Tree down across our wires,301,,2025-01-01 21:43:00+00:00,2025-01-02 20:27:17+00:00,2025-01-02 22:00:00+00:00,2025-01-02 22:00:00+00:00,2025-01-02 20:00:29+00:00,Lower Mainland,49.351019,-122.916946,200140,4.684181931402242,BUNTZEN NO. 1,NOT AVAILABLE,SUBSTATION,IN SERVICE,49.38,-122.87
2532868,2506820.0,725364552,Kamloops,"3100 block UPPER FADEAR CRK, 3600 block FADEAR CREEK RD",Work being done on our equipment,4,2025-01-01 22:40:00+00:00,2025-01-01 22:33:13+00:00,2025-01-02 04:12:41+00:00,2025-01-02 01:00:00+00:00,2025-01-02 01:00:00+00:00,2025-01-02 02:25:37+00:00,Thompson/Shuswap,51.028204,-119.915869,200291,31.754702342957817,HEFFLEY TAP,NOT AVAILABLE,TAP,IN SERVICE,50.85,-120.27
2532880,2506832.0,521980323,Coquitlam,500 block CLARKE RD,Under investigation,3,2025-01-02 00:50:00+00:00,2025-01-01 23:22:55+00:00,2025-01-02 02:53:35+00:00,,,2025-01-02 01:17:01+00:00,Lower Mainland,49.261175,-122.888622,200111,0.8359520942846045,BARNARD,BURNABY,SUBSTATION,IN SERVICE,49.26,-122.9
2532884,2506836.0,521980323,North Vancouver,"East of RUFUS AVE, West of EDGEWATER LN, North of FERN ST, South of CARMARIA CRT",Tree down across our wires,1583,2025-01-02 02:45:00+00:00,2025-01-02 00:27:21+00:00,2025-01-02 03:14:10+00:00,2025-01-02 03:15:00+00:00,2025-01-02 03:15:00+00:00,2025-01-02 02:43:28+00:00,Lower Mainland,49.3196,-123.028757,200123,1.071267240353899,WALTERS,NORTH VANCOUVER DISTRICT,SUBSTATION,IN SERVICE,49.31,-123.03
2532887,2506839.0,521980323,North Vancouver,1500 block MERLYNN CRES,Under investigation,10,,2025-01-02 02:47:00+00:00,2025-01-02 03:14:10+00:00,,,2025-01-02 02:48:35+00:00,Lower Mainland,49.327809,-123.032294,200129,0.6092649422247464,LYNN VALLEY,NORTH VANCOUVER DISTRICT,SUBSTATION,IN SERVICE,49.33,-123.04
2532921,2506873.0,1602964060,Hazelton,8500 block 9 MILE MOUNTAIN RD,Tree down across our wires,1,2025-01-02 06:00:00+00:00,2025-01-02 04:23:00+00:00,2025-01-02 07:24:14+00:00,2025-01-02 07:00:00+00:00,2025-01-02 07:00:00+00:00,2025-01-02 06:59:50+00:00,Northern,55.296089,-127.622318,200228,6.238540838686746,HAZELTON,NOT AVAILABLE,SUBSTATION,IN SERVICE,55.24,-127.62
2532922,2506874.0,521980323,Surrey,"10600 block KING GEORGE BLVD, 10600 - 10700 block 135A ST",Fire,42,2025-01-02 07:40:00+00:00,2025-01-02 06:56:56+00:00,2025-01-02 08:32:12+00:00,,,2025-01-02 07:57:33+00:00,Lower Mainland,49.196969,-122.846726,200002,0.9161764099679813,WHALLEY,SURREY,SUBSTATION,IN SERVICE,49.19,-122.84
2532923,2506875.0,1602964060,Chetwynd,"South-West of JOHN HART HWY 97 , North-East of HWY 97",Wire down,18,2025-01-02 16:25:00+00:00,2025-01-02 07:21:51+00:00,2025-01-02 22:37:45+00:00,2025-01-02 22:30:00+00:00,2025-01-02 22:30:00+00:00,2025-01-02 20:31:57+00:00,Northern,55.54575,-122.458022,200255,48.18691740383944,MORFEE,NOT AVAILABLE,SUBSTATION,IN SERVICE,55.32,-123.11
2532924,2506876.0,521980323,Vancouver,"400 block W 35TH AVE, 5100 block KERSLAND DR",Equipment failure,6,2025-01-02 13:05:00+00:00,2025-01-02 08:21:46+00:00,2025-01-02 15:09:57+00:00,2025-01-02 14:30:00+00:00,2025-01-02 14:30:00+00:00,2025-01-02 13:03:14+00:00,Lower Mainland,49.238997,-123.11539,200098,2.7574213895565363,MAINWARING,VANCOUVER,SUBSTATION,IN SERVICE,49.23,-123.08
2532926,2506878.0,521980323,Burnaby,"4500 block GARDEN GROVE DR, 4500 block ELMGROVE DR",Under investigation,10,2025-01-02 10:50:00+00:00,2025-01-02 08:51:00+00:00,2025-01-02 12:55:05+00:00,,,2025-01-02 11:37:14+00:00,Lower Mainland,49.24354,-122.995364,202166,2.59595000739372,UNKNOWN202166,BURNABY,SUBSTATION,IN SERVICE,49.26,-122.97
2532931,2506882.0,521980323,Delta,"West of 54TH ST, South of SALISH SEA WAY",Under investigation,2688,,2025-01-02 12:12:00+00:00,2025-01-02 14:09:19+00:00,,,2025-01-02 13:32:18+00:00,Lower Mainland,49.030542,-123.106046,200078,0.4448912202715532,TSAWASSEN BEACH TERMINAL,NOT AVAILABLE,SUBSTATION,IN SERVICE,49.03,-123.1
2532933,2506884.0,1812901382,North Saanich,"11100 block HEATHER RD, 1100 block LAUREL RD",equipment contact,5,2025-01-02 16:20:00+00:00,2025-01-02 14:35:14+00:00,2025-01-02 18:34:42+00:00,2025-01-02 18:15:00+00:00,2025-01-02 18:15:00+00:00,2025-01-02 17:57:08+00:00,South VI,48.685624,-123.450994,200071,6.590757340214499,SIDNEY,NORTH SAANICH,SUBSTATION,IN SERVICE,48.63,-123.42
2532936,2506887.0,521980323,Surrey,18500 block 20TH AVE,Under investigation,1,2025-01-02 16:20:00+00:00,2025-01-02 15:18:00+00:00,2025-01-02 17:08:56+00:00,,,2025-01-02 16:19:05+00:00,Lower Mainland,49.037818,-122.709978,200011,5.898080817239011,WHITE ROCK,WHITE ROCK,SUBSTATION,IN SERVICE,49.03,-122.79
2532942,2506893.0,848340027,Williams Lake,1100 block N MACKENZIE AVE,Under investigation,11,2025-01-02 17:15:00+00:00,2025-01-02 16:06:00+00:00,2025-01-02 17:47:05+00:00,,,2025-01-02 17:15:42+00:00,Central Interior,52.145557,-122.162604,200186,0.7062163763330871,WELDWOOD,NOT AVAILABLE,SUBSTATION,IN SERVICE,52.15,-122.17
2532947,2506898.0,725364552,Kamloops,1200 block BATTLE ST,Vandalism,1,2025-01-02 17:40:00+00:00,2025-01-02 16:38:43+00:00,2025-01-02 19:07:45+00:00,2025-01-02 18:20:00+00:00,2025-01-02 18:20:00+00:00,2025-01-02 18:10:41+00:00,Thompson/Shuswap,50.673319,-120.311335,200284,0.3808584961722859,DOUGLAS STREET,KAMLOOPS,SUBSTATION,IN SERVICE,50.67,-120.31
2532959,2506910.0,2072041405,West Kelowna,3000 block ELLIOTT RD,Planned work being done on our equipment,2,2025-01-02 17:30:00+00:00,2025-01-02 17:27:10+00:00,2025-01-02 22:28:32+00:00,2025-01-02 23:00:00+00:00,2025-01-02 23:00:00+00:00,2025-01-02 17:28:12+00:00,Okanagan/Kootenay,49.847386,-119.652487,200296,2.347364204940716,WESTBANK,WESTBANK,SUBSTATION,IN SERVICE,49.85,-119.62
2532962,2506913.0,521980323,Langley,2100 block 224 ST,Under investigation,1,2025-01-02 19:25:00+00:00,2025-01-02 17:39:00+00:00,2025-01-02 22:09:27+00:00,2025-01-02 21:45:00+00:00,2025-01-02 21:45:00+00:00,2025-01-02 21:15:38+00:00,Lower Mainland,49.040014,-122.598629,200144,6.806792529388723,BALFOUR,NOT AVAILABLE,SUBSTATION,IN SERVICE,49.1,-122.58
2532966,2506917.0,521980323,Surrey,"South of 62A AVE, East of 172A ST, North of 60TH AVE, West of 175A ST",Planned work being done on our equipment,41,2025-01-02 17:50:00+00:00,2025-01-02 17:45:27+00:00,2025-01-03 03:47:13+00:00,2025-01-03 04:00:00+00:00,2025-01-03 04:00:00+00:00,2025-01-02 23:16:45+00:00,Lower Mainland,49.113445,-122.742054,200010,2.771198579882522,CLOVERDALE,SURREY,SUBSTATION,IN SERVICE,49.1,-122.71
2532969,2506920.0,1812901382,Oak Bay,"1200 block MONTEREY, 1200 block MONTEREY AVE",Planned work being done on our equipment,10,2025-01-02 18:20:00+00:00,2025-01-02 18:14:48+00:00,2025-01-02 19:20:45+00:00,2025-01-02 18:45:00+00:00,2025-01-02 18:45:00+00:00,2025-01-02 18:31:52+00:00,South VI,48.423614,-123.314073,200068,4.51062025631961,HORSEY,VICTORIA,SUBSTATION,IN SERVICE,48.44,-123.37
2532971,2506922.0,521980323,Abbotsford,"2300 - 2400 block LYNDEN ST, 32200 - 32300 block PEARDONVILLE RD",Planned work being done on our equipment,19,2025-01-02 18:20:00+00:00,2025-01-02 18:19:11+00:00,2025-01-02 20:11:02+00:00,2025-01-02 20:00:00+00:00,2025-01-02 20:00:00+00:00,2025-01-02 18:20:10+00:00,Lower Mainland,49.045516,-122.329856,200150,3.3210818540068874,ABBOTSFORD,ABBOTSFORD,SUBSTATION,IN SERVICE,49.06,-122.29
2532972,2506923.0,1602896846,Campbell River,400 block GOODWIN RD,Work being done on our equipment,12,2025-01-02 20:05:00+00:00,2025-01-02 18:20:00+00:00,2025-01-02 21:09:10+00:00,2025-01-02 20:25:00+00:00,2025-01-02 20:25:00+00:00,2025-01-02 20:05:37+00:00,North VI,49.971152,-125.23309,200029,5.564520856456862,CAMPBELL RIVER,CAMPBELL RIVER,SUBSTATION,IN SERVICE,50.02,-125.25
2532974,2506925.0,1812901382,Saanich,"South of BLAIR AVE, North-East of OAKWOOD ST, West of CEDARWOOD ST",Planned work being done on our equipment,34,2025-01-02 20:00:00+00:00,2025-01-02 18:27:00+00:00,2025-01-02 22:09:27+00:00,2025-01-02 23:00:00+00:00,2025-01-02 23:00:00+00:00,2025-01-02 20:00:39+00:00,South VI,48.471509,-123.328721,200069,2.312062304417216,GEORGE TRIPP,SAANICH,SUBSTATION,IN SERVICE,48.47,-123.36
2532975,2506926.0,725364552,Sicamous,"900 block BIRCH AVE, 600 block SPRUCE ST",Planned work being done on our equipment,11,2025-01-02 18:30:00+00:00,2025-01-02 18:27:54+00:00,2025-01-02 19:07:45+00:00,2025-01-02 19:00:00+00:00,2025-01-02 19:00:00+00:00,2025-01-02 18:29:00+00:00,Thompson/Shuswap,50.831182,-118.977291,200301,1.1061498002526364,SICAMOUS,NOT AVAILABLE,SUBSTATION,IN SERVICE,50.84,-118.97
2532976,2506927.0,848340027,Prince George,"East of KLUSS RD, South-West of CRANBROOK HILL RD",Planned work being done on our equipment,48,2025-01-02 18:30:00+00:00,2025-01-02 18:29:48+00:00,2025-01-02 19:07:45+00:00,2025-01-02 19:00:00+00:00,2025-01-02 19:00:00+00:00,2025-01-02 18:31:00+00:00,Central Interior,53.91078,-122.831817,200204,1.4316290120725894,FOOTHILLS,NOT AVAILABLE,SUBSTATION,IN SERVICE,53.91,-122.81
2532979,2506930.0,1602964060,Daajing Giids,300 block SCHOOL RD,Under investigation,1,2025-01-02 22:00:00+00:00,2025-01-02 18:40:00+00:00,2025-01-02 23:47:16+00:00,2025-01-02 23:00:00+00:00,2025-01-02 23:00:00+00:00,2025-01-02 23:00:36+00:00,Northern,53.24283,-131.81734,200238,147.02699156866305,RIDLEY COAL,NOT AVAILABLE,SUBSTATION,IN SERVICE,54.23,-130.33
2532982,2506933.0,848340027,Williams Lake,"West of VALLEYVIEW RD, North-East of LIKELY RD, South of HIEBERT DR",Planned work being done on our equipment,6,2025-01-02 19:15:00+00:00,2025-01-02 19:10:55+00:00,2025-01-02 21:09:10+00:00,2025-01-02 21:00:00+00:00,2025-01-02 21:00:00+00:00,2025-01-02 19:12:28+00:00,Central Interior,52.118908,-121.937297,200184,13.892968055377926,WILLIAMS LAKE,WILLIAMS LAKE,SUBSTATION,IN SERVICE,52.13,-122.14
2532985,2506936.0,1602964060,Fort St. John,"16100 block N 287 RD, 15600 - 16200 block 287 RD",Planned work being done on our equipment,4,2025-01-02 19:30:00+00:00,2025-01-02 19:29:05+00:00,2025-01-02 20:11:02+00:00,2025-01-02 20:00:00+00:00,2025-01-02 20:00:00+00:00,2025-01-02 19:31:16+00:00,Northern,56.507533,-121.140275,200262,21.827539780708758,FOX CREEK,NOT AVAILABLE,SUBSTATION,IN SERVICE,56.68,-120.97
2532988,2506939.0,1812901382,Saanich,4800 block TOWNSEND DR,Planned work being done on our equipment,6,2025-01-02 19:45:00+00:00,2025-01-02 19:42:01+00:00,2025-01-02 20:47:17+00:00,2025-01-02 21:00:00+00:00,2025-01-02 21:00:00+00:00,2025-01-02 19:43:21+00:00,South VI,48.512564,-123.404727,200061,2.749792927676365,GOWARD,NOT AVAILABLE,SUBSTATION,IN SERVICE,48.49,-123.42
2532993,2506944.0,725364552,Salmon Arm,2900 - 3000 block BROCKMAN RD,Planned work being done on our equipment,6,2025-01-02 20:05:00+00:00,2025-01-02 20:01:02+00:00,2025-01-02 21:32:38+00:00,2025-01-02 21:30:00+00:00,2025-01-02 21:30:00+00:00,2025-01-02 20:19:06+00:00,Thompson/Shuswap,50.479274,-119.365635,200300,24.813181894007542,SALMON ARM,NOT AVAILABLE,SUBSTATION,IN SERVICE,50.69,-119.25
2533004,2506955.0,521980323,Abbotsford,2000 block GLADWIN RD,Planned work being done on our equipment,6,2025-01-02 21:35:00+00:00,2025-01-02 21:32:04+00:00,2025-01-02 22:09:27+00:00,2025-01-02 22:00:00+00:00,2025-01-02 22:00:00+00:00,2025-01-02 21:33:13+00:00,Lower Mainland,49.03983,-122.315001,200150,2.889612879251643,ABBOTSFORD,ABBOTSFORD,SUBSTATION,IN SERVICE,49.06,-122.29
2533006,2506957.0,1602896846,Qualicum Beach,"East of HOLLYWOOD RD, West of ROAD A , South of SEAWARD WAY",Work being done on our equipment,1141,,2025-01-02 21:33:36+00:00,2025-01-02 23:09:57+00:00,2025-01-02 23:00:00+00:00,2025-01-02 23:00:00+00:00,2025-01-02 22:13:40+00:00,North VI,49.343977,-124.385309,202371,4.256547189287797,QUALICUM,NOT AVAILABLE,SUBSTATION,IN SERVICE,49.33,-124.44
2533010,2506961.0,521980323,Langley,2100 block 224 ST,Equipment failure,2,2025-01-02 23:40:00+00:00,2025-01-02 21:48:20+00:00,2025-01-03 00:50:52+00:00,2025-01-03 00:30:00+00:00,2025-01-03 00:30:00+00:00,2025-01-02 23:39:15+00:00,Lower Mainland,49.040636,-122.605015,200144,6.847888185837065,BALFOUR,NOT AVAILABLE,SUBSTATION,IN SERVICE,49.1,-122.58
2533011,2506962.0,521980323,Abbotsford,2000 block GLADWIN RD,Planned work being done on our equipment,7,2025-01-02 21:55:00+00:00,2025-01-02 21:51:08+00:00,2025-01-02 22:37:45+00:00,2025-01-02 22:15:00+00:00,2025-01-02 22:15:00+00:00,2025-01-02 21:55:47+00:00,Lower Mainland,49.039363,-122.315822,200150,2.96768094662502,ABBOTSFORD,ABBOTSFORD,SUBSTATION,IN SERVICE,49.06,-122.29
2533014,2506965.0,1602964060,Burns Lake,HWY 118 P79,Under investigation,1,2025-01-02 23:30:00+00:00,2025-01-02 21:59:00+00:00,2025-01-03 00:50:52+00:00,,,2025-01-02 23:30:46+00:00,Northern,54.818175,-126.168494,200224,7.164400692047992,BABINE LAKE,NOT AVAILABLE,SUBSTATION,IN SERVICE,54.88,-126.2
2533027,2506978.0,521980323,Port Coquitlam,"South of NICOLA AVE, North of BELFAST AVE, West of FREMONT CON, East of HAWKINS ST",Under investigation,10,2025-01-03 01:00:00+00:00,2025-01-02 23:28:00+00:00,2025-01-03 02:12:19+00:00,,,2025-01-03 00:34:04+00:00,Lower Mainland,49.254004,-122.734547,202218,3.3653776012843646,UNKNOWN202218,PORT COQUITLAM,SUBSTATION,IN SERVICE,49.26,-122.78
2533031,2506982.0,2072041405,Cranbrook,"South of VAN HORNE ST, West of 4TH AVE, East of 3RD AVE, North of 3RD ST",Under investigation,8,2025-01-03 00:25:00+00:00,2025-01-02 23:42:00+00:00,2025-01-03 02:12:19+00:00,2025-01-03 01:25:00+00:00,2025-01-03 01:25:00+00:00,2025-01-03 00:26:42+00:00,Okanagan/Kootenay,49.508378,-115.776632,200320,1.9313173524348315,STEEPLES,CRANBROOK,SUBSTATION,IN SERVICE,49.51,-115.75
2533036,2506987.0,2072041405,Golden,1200 block ALEXANDER DR,Wire down,6,2025-01-03 00:40:00+00:00,2025-01-02 23:58:09+00:00,2025-01-03 02:12:19+00:00,2025-01-03 02:00:00+00:00,2025-01-03 02:00:00+00:00,2025-01-03 00:41:24+00:00,Okanagan/Kootenay,51.290975,-116.956968,200330,0.23708074035205423,GOLDEN,GOLDEN,SUBSTATION,IN SERVICE,51.29,-116.96
2533041,2506992.0,521980323,Coquitlam,2200 block LORRAINE AVE,Under investigation,15,2025-01-03 02:05:00+00:00,2025-01-03 01:38:00+00:00,2025-01-03 04:12:45+00:00,2025-01-03 03:30:00+00:00,2025-01-03 03:30:00+00:00,2025-01-03 02:53:59+00:00,Lower Mainland,49.242278,-122.831148,202056,2.5003937253073674,UNKNOWN202056,COQUITLAM,SUBSTATION,IN SERVICE,49.23,-122.86
2533045,2506996.0,521980323,Langley,20200 block 72B AVE,Under investigation,1,,2025-01-03 02:34:00+00:00,2025-01-03 03:34:01+00:00,,,2025-01-03 02:39:54+00:00,Lower Mainland,49.134579,-122.659569,200008,4.12250887282729,MCLELLAN,NOT AVAILABLE,SUBSTATION,IN SERVICE,49.1,-122.68
2533048,2506999.0,1812901382,Ganges,200 block BAY RIDGE PL,Under investigation,4,2025-01-03 03:55:00+00:00,2025-01-03 02:45:00+00:00,2025-01-03 04:31:10+00:00,2025-01-03 04:15:00+00:00,2025-01-03 04:15:00+00:00,2025-01-03 04:07:33+00:00,South VI,48.754798,-123.391729,200072,10.950774264707993,TRINCOMALI,NOT AVAILABLE,SUBSTATION,IN SERVICE,48.85,-123.43
2533049,2507000.0,848340027,Prince George,"SINCLAIR MILLS P172, SINCLAIR MILL ACCESS, UPPER FRASER E P278, 37900 - 38200 block SINCLAIR MILLS RD, 800 block LONGWORTH S RD, S LONGWORTH RD LT2, GRAY RD P396, S LONGWORTH RD P1, UPPER FRASER E P283, N LONGWORTH RD P11...",Under investigation,56,,2025-01-03 02:50:19+00:00,2025-01-03 03:15:22+00:00,,,2025-01-03 02:51:17+00:00,Central Interior,53.950226,-121.541416,200214,32.684905658651196,UPPER FRASER,NOT AVAILABLE,SUBSTATION,IN SERVICE,54.12,-121.95
2533052,2507003.0,521980323,Maple Ridge,11900 block 232 ST,Under investigation,1,2025-01-03 04:50:00+00:00,2025-01-03 03:01:00+00:00,2025-01-03 06:36:12+00:00,2025-01-03 05:45:00+00:00,2025-01-03 05:45:00+00:00,2025-01-03 06:00:41+00:00,Lower Mainland,49.218651,-122.579503,200146,6.673929091116866,TAP200146,NOT AVAILABLE,TAP,IN SERVICE,49.16,-122.56
2533055,2507006.0,2072041405,West Kelowna,"North-South of BRIDGEVIEW RD, West of CAMPBELL RD, East of KELVIEW RD",Under investigation,12,,2025-01-03 03:11:00+00:00,2025-01-03 03:47:13+00:00,,,2025-01-03 03:18:39+00:00,Okanagan/Kootenay,49.870773,-119.536581,200296,6.410271731434248,WESTBANK,WESTBANK,SUBSTATION,IN SERVICE,49.85,-119.62
2533057,2507008.0,848340027,Prince George,"1900 block S LONGWORTH RD, 500 block GRAVEL PIT RD, S LONGWORTH RD LT2, 42200 block BERG RD, S LONGWORTH RD P11, GRAY RD P404, 38500 - 50400 block UPPER FRASER RD, S LONGWORTH RD P19, S LONGWORTH RD P1, S LONGWORTH RD P22...",Under investigation,30,2025-01-03 08:45:00+00:00,2025-01-03 03:39:00+00:00,2025-01-03 10:47:05+00:00,2025-01-03 11:00:00+00:00,2025-01-03 11:00:00+00:00,2025-01-03 09:27:23+00:00,Central Interior,53.934047,-121.50851,200214,35.48345232731883,UPPER FRASER,NOT AVAILABLE,SUBSTATION,IN SERVICE,54.12,-121.95
2533059,2507010.0,1812901382,Victoria,600 block RICHMOND AVE,Under investigation,1,2025-01-03 09:40:00+00:00,2025-01-03 03:41:00+00:00,2025-01-03 11:33:01+00:00,,,2025-01-03 09:39:15+00:00,South VI,48.417937,-123.331409,200068,3.7584764768269356,HORSEY,VICTORIA,SUBSTATION,IN SERVICE,48.44,-123.37
2533060,2507011.0,2072041405,Vernon,"South of HAYNES RD, North of POTTERY RD, West of BOSS CREEK RD, East of EAST VERNON RD",Motor vehicle accident,134,2025-01-03 10:30:00+00:00,2025-01-03 03:44:00+00:00,2025-01-03 11:21:54+00:00,2025-01-03 11:00:00+00:00,2025-01-03 11:00:00+00:00,2025-01-03 10:27:38+00:00,Okanagan/Kootenay,50.270319,-119.222917,200303,2.3147947091659224,VERNON TERMINAL,NOT AVAILABLE,SUBSTATION,IN SERVICE,50.25,-119.23
2533061,2507012.0,2072041405,West Kelowna,2200 block BRIDGEVIEW RD,Under investigation,1,2025-01-03 04:40:00+00:00,2025-01-03 03:59:00+00:00,2025-01-03 05:37:56+00:00,,,2025-01-03 04:38:40+00:00,Okanagan/Kootenay,49.871144,-119.537334,200296,6.375028285136147,WESTBANK,WESTBANK,SUBSTATION,IN SERVICE,49.85,-119.62
2533069,2507020.0,521980323,Coquitlam,North-West of PIPELINE RD,Under investigation,6,2025-01-03 15:25:00+00:00,2025-01-03 10:21:27+00:00,2025-01-03 17:08:52+00:00,,,2025-01-03 15:44:04+00:00,Lower Mainland,49.353836,-122.777604,200007,5.410177045870109,MERIDIAN,NOT AVAILABLE,SUBSTATION,IN SERVICE,49.31,-122.81
2533074,2507025.0,725364552,Kamloops,"3000 - 4000 block AIRPORT RD, 3000 block AIRPORT DR",Under investigation,10,2025-01-03 13:15:00+00:00,2025-01-03 12:12:00+00:00,2025-01-03 14:28:06+00:00,,,2025-01-03 13:13:43+00:00,Thompson/Shuswap,50.706091,-120.44667,200294,3.742464894090386,KAMWOOD,NOT AVAILABLE,SUBSTATION,IN SERVICE,50.69,-120.4
2533075,2507026.0,521980323,"Burnaby, Vancouver","West of GRIFFITHS AVE, South of GRANGE ST, North of MARINE DR, East of CHAMPLAIN CRS",Under investigation,2498,2025-01-03 14:40:00+00:00,2025-01-03 12:13:00+00:00,2025-01-03 16:33:16+00:00,,,2025-01-03 16:03:24+00:00,Lower Mainland,49.218563,-123.016877,200108,4.133993111205343,NEWELL,BURNABY,SUBSTATION,IN SERVICE,49.22,-122.96
2533080,2507031.0,1602964060,Fort St. John,North of RED CREEK RD,Under investigation,69,,2025-01-03 12:58:47+00:00,2025-01-03 13:47:15+00:00,,,2025-01-03 13:29:24+00:00,Northern,56.463671,-121.16741,200261,18.252443971750797,TAP200261,NOT AVAILABLE,TAP,IN SERVICE,56.3,-121.19
2533098,2507049.0,1602964060,Fort St. John,"West of 273 RD, South of TAMARACK RD",Under investigation,350,,2025-01-03 13:00:00+00:00,2025-01-03 13:35:32+00:00,,,2025-01-03 13:12:29+00:00,Northern,56.26699,-121.017743,200261,11.247896481004101,TAP200261,NOT AVAILABLE,TAP,IN SERVICE,56.3,-121.19
2533081,2507032.0,1602964060,Fort St. John,"North of HWY 29 , South of RD 256 , West of 275 P RD",Under investigation,364,,2025-01-03 13:00:00+00:00,2025-01-03 13:47:15+00:00,,,2025-01-03 13:27:21+00:00,Northern,56.368467,-121.120024,200261,8.75017915464903,TAP200261,NOT AVAILABLE,TAP,IN SERVICE,56.3,-121.19
2533107,2507058.0,725364552,Kamloops,"3000 - 4000 block AIRPORT RD, 3000 block AIRPORT DR",Under investigation,10,2025-01-03 16:25:00+00:00,2025-01-03 15:34:00+00:00,2025-01-03 17:08:52+00:00,,,2025-01-03 16:24:34+00:00,Thompson/Shuswap,50.706091,-120.44667,200294,3.742464894090386,KAMWOOD,NOT AVAILABLE,SUBSTATION,IN SERVICE,50.69,-120.4
2533109,2507060.0,1602896846,Port Alberni,"5700 - 5900 block ALBERT ST, 2800 - 3100 block MOZART RD",Wire down,14,2025-01-03 16:05:00+00:00,2025-01-03 15:44:00+00:00,2025-01-03 18:48:04+00:00,2025-01-03 18:30:00+00:00,2025-01-03 18:30:00+00:00,2025-01-03 16:17:50+00:00,North VI,49.273483,-124.770277,200038,3.8893981394252246,PORT ALBERNI,PORT ALBERNI,SUBSTATION,IN SERVICE,49.25,-124.81
2533114,2507065.0,1602964060,Terrace,"3800 block WALKER ST, 3400 block PARMENTER AVE",Planned work being done on our equipment,11,2025-01-03 16:35:00+00:00,2025-01-03 16:32:03+00:00,2025-01-03 19:07:33+00:00,2025-01-03 23:00:00+00:00,2025-01-03 23:00:00+00:00,2025-01-03 16:34:09+00:00,Northern,54.528109,-128.513693,200230,3.603756406976315,TERRACE,NOT AVAILABLE,SUBSTATION,IN SERVICE,54.51,-128.56
2533117,2507068.0,521980323,Surrey,"West of 129TH ST, North of 92A AVE, South of CINNAMON DR, East of 128TH ST",Under investigation,17,,2025-01-03 16:55:00+00:00,2025-01-03 18:34:23+00:00,,,2025-01-03 17:01:56+00:00,Lower Mainland,49.171663,-122.866613,200001,1.3200402413106738,INGLEDOW,SURREY,SUBSTATION,IN SERVICE,49.16,-122.87
2533121,2507072.0,1812901382,Saanich,"North of LUCAS AVE, South of VALEWOOD TRL, West of BORDEN ST, East of QUADRA ST",Planned work being done on our equipment,244,2025-01-03 17:15:00+00:00,2025-01-03 17:12:50+00:00,2025-01-03 19:47:08+00:00,2025-01-03 21:30:00+00:00,2025-01-03 21:30:00+00:00,2025-01-03 17:15:01+00:00,South VI,48.482996,-123.371786,200069,1.6861457554185717,GEORGE TRIPP,SAANICH,SUBSTATION,IN SERVICE,48.47,-123.36
2533123,2507074.0,521980323,Vancouver,"South of TODERICK ST, West of HURST PL, East of CHAMPLAIN CRS, North of BLAKE ST",Planned work being done on our equipment,279,2025-01-03 17:25:00+00:00,2025-01-03 17:15:23+00:00,2025-01-03 23:10:17+00:00,2025-01-04 01:00:00+00:00,2025-01-04 01:00:00+00:00,2025-01-03 19:04:24+00:00,Lower Mainland,49.219302,-123.030553,200004,3.737579995172901,KNIGHT STREET,VANCOUVER,SUBSTATION,IN SERVICE,49.21,-123.08
2533128,2507079.0,1812901382,Saanich,"South of FELTHAM RD, West of LARCHWOOD DR, East of SHELBOURNE ST, North of OAKWOOD ST",Planned work being done on our equipment,165,2025-01-03 21:25:00+00:00,2025-01-03 17:39:43+00:00,2025-01-04 02:09:17+00:00,2025-01-04 02:00:00+00:00,2025-01-04 02:00:00+00:00,2025-01-03 22:56:37+00:00,South VI,48.473822,-123.328731,200069,2.3440242736488406,GEORGE TRIPP,SAANICH,SUBSTATION,IN SERVICE,48.47,-123.36
2533132,2507083.0,725364552,Merritt,East of SAVONA RD,Under investigation,1598,,2025-01-03 17:45:00+00:00,2025-01-03 19:07:33+00:00,,,2025-01-03 18:06:31+00:00,Thompson/Shuswap,50.495061,-120.635652,200278,15.550864621420377,HIGHLAND,NOT AVAILABLE,SUBSTATION,IN SERVICE,50.41,-120.81
2533134,2507085.0,521980323,Richmond,4700 block STEVESTON HWY,Wire dug up,14,2025-01-03 21:35:00+00:00,2025-01-03 17:51:00+00:00,2025-01-04 02:52:14+00:00,2025-01-04 04:30:00+00:00,2025-01-04 04:30:00+00:00,2025-01-03 23:31:44+00:00,Lower Mainland,49.133911,-123.170734,201835,0.8022614549905122,UNKNOWN201835,RICHMOND,SUBSTATION,IN SERVICE,49.13,-123.18
2533133,2507084.0,1812901382,Oak Bay,"North of ESPLANADE , South-West of THORPE PL, East of BEACH DR",Animal contacting our wires,10,,2025-01-03 17:52:02+00:00,2025-01-03 22:28:32+00:00,2025-01-03 22:30:00+00:00,2025-01-03 22:30:00+00:00,2025-01-03 21:49:24+00:00,South VI,48.436915,-123.302138,200068,5.017877911405905,HORSEY,VICTORIA,SUBSTATION,IN SERVICE,48.44,-123.37
2533135,2507086.0,1812901382,Sooke,"West of DIXON RD, East of CALVERT RD, North of SOOKE RIVER RD, South of MEOTA DR",Tree down across our wires,29,2025-01-04 03:40:00+00:00,2025-01-03 17:54:00+00:00,2025-01-04 04:30:06+00:00,2025-01-04 04:15:00+00:00,2025-01-04 04:15:00+00:00,2025-01-04 03:37:50+00:00,South VI,48.396416,-123.697181,202385,0.743169093039709,SOOKE,NOT AVAILABLE,SUBSTATION,IN SERVICE,48.39,-123.7
2533136,2507087.0,1602964060,Terrace,"North-South-East of KALUM LAKE RD, West of GIBBS ST",Planned work being done on our equipment,3,2025-01-03 18:05:00+00:00,2025-01-03 18:01:03+00:00,2025-01-03 23:33:01+00:00,2025-01-04 00:00:00+00:00,2025-01-04 00:00:00+00:00,2025-01-03 23:05:11+00:00,Northern,54.535491,-128.63159,200231,1.8778685299336297,KALUM,TERRACE,SUBSTATION,IN SERVICE,54.52,-128.62
2533145,2507096.0,848340027,Prince George,"South of DEZELL DR, West of PATTERSON ST, North of 2ND AVE, East of QUINN ST",Planned work being done on our equipment,55,2025-01-03 18:30:00+00:00,2025-01-03 18:28:05+00:00,2025-01-03 20:11:04+00:00,2025-01-03 23:00:00+00:00,2025-01-03 23:00:00+00:00,2025-01-03 19:02:54+00:00,Central Interior,53.926481,-122.790977,200204,2.2159317901599374,FOOTHILLS,NOT AVAILABLE,SUBSTATION,IN SERVICE,53.91,-122.81
2533151,2507102.0,521980323,Port Coquitlam,2000 block PIPELINE RD,Under investigation,1,2025-01-03 20:00:00+00:00,2025-01-03 18:38:00+00:00,2025-01-03 19:47:08+00:00,,,2025-01-03 18:56:39+00:00,Lower Mainland,49.355908,-122.779105,200007,5.574056798948395,MERIDIAN,NOT AVAILABLE,SUBSTATION,IN SERVICE,49.31,-122.81
2533156,2507107.0,521980323,Abbotsford,2000 block GLADWIN RD,Planned work being done on our equipment,9,2025-01-03 19:00:00+00:00,2025-01-03 18:59:26+00:00,2025-01-03 19:47:08+00:00,2025-01-03 19:30:00+00:00,2025-01-03 19:30:00+00:00,2025-01-03 19:18:01+00:00,Lower Mainland,49.039831,-122.314641,200150,2.8730555951535215,ABBOTSFORD,ABBOTSFORD,SUBSTATION,IN SERVICE,49.06,-122.29
2533160,2507111.0,1602896846,Qualicum Beach,"North of HOY LAKE RD, East of RIVERBEND RD, South-West of ISLAND HWY",Under investigation,19,2025-01-03 20:10:00+00:00,2025-01-03 19:13:00+00:00,2025-01-03 21:08:51+00:00,2025-01-03 21:00:00+00:00,2025-01-03 21:00:00+00:00,2025-01-03 20:10:30+00:00,North VI,49.358934,-124.482558,202371,4.456073788056932,QUALICUM,NOT AVAILABLE,SUBSTATION,IN SERVICE,49.33,-124.44
2533163,2507114.0,848340027,100 Mile House,"7200 - 8000 block S CANIM LK RD, 8050 S CANIM LAKE RD,, RED CREEK RD P36, MAHOOD LK SUB P14N, 8900 block SOUTH MAHOOD LK, 9000 block S MAHOOD LAKE, S CANIM LAKE RD P60, 3400 - 9000 block MAHOOD LK RD, 3400 - 3500 block RED CREEK RD, 91M S OF 3620 HIGGINS RD,...",Tree down across our wires,328,,2025-01-03 19:24:42+00:00,2025-01-03 21:32:47+00:00,2025-01-03 21:45:00+00:00,2025-01-03 21:45:00+00:00,2025-01-03 21:10:59+00:00,Central Interior,51.834551,-120.715888,200187,44.03263404601223,100 MILE HOUSE,NOT AVAILABLE,SUBSTATION,IN SERVICE,51.66,-121.29
2533182,2507133.0,521980323,Surrey,2100 block 174 ST,Under investigation,1,2025-01-03 21:30:00+00:00,2025-01-03 20:38:08+00:00,2025-01-03 22:09:11+00:00,,,2025-01-03 21:31:03+00:00,Lower Mainland,49.040673,-122.740501,200011,3.798563470735484,WHITE ROCK,WHITE ROCK,SUBSTATION,IN SERVICE,49.03,-122.79
2533190,2507141.0,1602964060,Fort St. John,"South of 240th RD, North of CLAYHURST RD",Planned work being done on our equipment,4,2025-01-03 21:10:00+00:00,2025-01-03 21:07:03+00:00,2025-01-03 22:09:11+00:00,2025-01-03 22:00:00+00:00,2025-01-03 22:00:00+00:00,2025-01-03 21:08:15+00:00,Northern,56.210212,-120.058404,200265,15.28565936224633,TEXACO,NOT AVAILABLE,SUBSTATION,IN SERVICE,56.34,-120.14
2533196,2507147.0,521980323,Vancouver,1100 block KINGSWAY,Bird contacting our wires,1,2025-01-03 22:40:00+00:00,2025-01-03 21:40:00+00:00,2025-01-04 00:49:35+00:00,2025-01-04 00:35:00+00:00,2025-01-04 00:35:00+00:00,2025-01-03 23:35:52+00:00,Lower Mainland,49.252375,-123.081423,200098,2.4901302448444174,MAINWARING,VANCOUVER,SUBSTATION,IN SERVICE,49.23,-123.08
2533203,2507154.0,521980323,Surrey,17300 block 61A AVE,Under investigation,1,2025-01-03 23:35:00+00:00,2025-01-03 22:18:00+00:00,2025-01-04 02:09:17+00:00,2025-01-04 00:55:00+00:00,2025-01-04 00:55:00+00:00,2025-01-03 23:55:10+00:00,Lower Mainland,49.115302,-122.741397,200010,2.8492968797790827,CLOVERDALE,SURREY,SUBSTATION,IN SERVICE,49.1,-122.71
2533204,2507155.0,521980323,Vancouver,"North of BEAMISH CRT, West of BOUNDARY RD, East of CHAMPLAIN CRS, South of HURST PL",Planned work being done on our equipment,442,,2025-01-03 22:30:16+00:00,2025-01-03 23:10:17+00:00,2025-01-03 23:00:00+00:00,2025-01-03 23:00:00+00:00,2025-01-03 22:32:21+00:00,Lower Mainland,49.217375,-123.026303,200003,3.9062896931314315,CAMBIE,NOT AVAILABLE,SUBSTATION,IN SERVICE,49.19,-123.06
2533207,2507158.0,1602964060,Prince Rupert,800 block SUMMIT AVE,Under investigation,1,,2025-01-03 22:46:00+00:00,2025-01-04 00:49:35+00:00,,,2025-01-03 23:05:11+00:00,Northern,54.30738,-130.325481,200237,1.0457025361700747,OLDFIELD,PRINCE RUPERT,SUBSTATION,IN SERVICE,54.31,-130.31
2533209,2507160.0,521980323,Richmond,9200 block NO 5 RD,Under investigation,1,2025-01-04 01:20:00+00:00,2025-01-03 22:52:00+00:00,2025-01-04 05:36:29+00:00,,,2025-01-04 02:03:11+00:00,Lower Mainland,49.146294,-123.091405,200084,3.1939198353559908,RICHMOND,RICHMOND,SUBSTATION,IN SERVICE,49.16,-123.13
2533224,2507175.0,1602964060,Daajing Giids,500 block COPPER BAY RD,Transformer burn out,6,2025-01-04 01:40:00+00:00,2025-01-04 00:42:00+00:00,2025-01-04 05:09:29+00:00,2025-01-04 05:30:00+00:00,2025-01-04 05:30:00+00:00,2025-01-04 03:27:01+00:00,Northern,53.229005,-131.799954,200238,147.4362573369394,RIDLEY COAL,NOT AVAILABLE,SUBSTATION,IN SERVICE,54.23,-130.33
2533226,2507177.0,521980323,Surrey,7400 block 194 ST,Under investigation,1,2025-01-04 02:10:00+00:00,2025-01-04 00:51:00+00:00,2025-01-04 03:13:31+00:00,2025-01-04 03:00:00+00:00,2025-01-04 03:00:00+00:00,2025-01-04 02:31:38+00:00,Lower Mainland,49.139052,-122.685405,200008,4.360163459596589,MCLELLAN,NOT AVAILABLE,SUBSTATION,IN SERVICE,49.1,-122.68
2533260,2507211.0,725364552,Revelstoke,200 block E TRACK ST,Under investigation,1,2025-01-04 03:05:00+00:00,2025-01-04 01:21:00+00:00,2025-01-04 03:47:07+00:00,,,2025-01-04 02:06:01+00:00,Thompson/Shuswap,50.996546,-118.184899,200307,1.2832795102486452,ILLECILLEWAET,NOT AVAILABLE,SUBSTATION,IN SERVICE,50.99,-118.2
2533264,2507213.0,1602964060,Fort St. John,"East of RD 259 , South of RD 256",Equipment failure,34,2025-01-04 03:20:00+00:00,2025-01-04 01:35:09+00:00,2025-01-04 05:09:29+00:00,2025-01-04 05:00:00+00:00,2025-01-04 05:00:00+00:00,2025-01-04 04:35:57+00:00,Northern,56.425339,-120.724291,200263,22.50790034046092,FORT ST. JOHN,NOT AVAILABLE,SUBSTATION,IN SERVICE,56.23,-120.82
2533268,2507218.0,521980323,Mission,8500 block MCDONALD RD,Equipment failure,1,2025-01-04 07:55:00+00:00,2025-01-04 02:48:00+00:00,2025-01-04 11:21:16+00:00,2025-01-04 11:00:00+00:00,2025-01-04 11:00:00+00:00,2025-01-04 10:44:22+00:00,Lower Mainland,49.156987,-122.104146,200168,8.614765320670184,ATCHELITZ,NOT AVAILABLE,SUBSTATION,IN SERVICE,49.11,-122.01
2533270,2507219.0,521980323,Chilliwack,45900 block WELLINGTON AVE,Under investigation,1,2025-01-04 03:40:00+00:00,2025-01-04 02:52:17+00:00,2025-01-04 07:32:40+00:00,2025-01-04 08:15:00+00:00,2025-01-04 08:15:00+00:00,2025-01-04 06:59:03+00:00,Lower Mainland,49.17151,-121.952764,202029,0.2618585268524858,UNKNOWN202029,CHILLIWACK,SUBSTATION,IN SERVICE,49.17,-121.95
2533273,2507222.0,848340027,Prince George,9000 block HILLTOP DR,Under investigation,1,2025-01-04 05:00:00+00:00,2025-01-04 03:37:00+00:00,2025-01-04 05:09:29+00:00,,,2025-01-04 04:09:44+00:00,Central Interior,53.834087,-122.814946,200202,1.1865776326718864,BEAVERLEY,NOT AVAILABLE,SUBSTATION,IN SERVICE,53.84,-122.83
2533277,2507223.0,521980323,"Langley, Surrey","North of 0 AVE, West of 200TH ST, East of 190TH ST, South of 8TH AVE",Tree down across our wires,68,2025-01-04 09:40:00+00:00,2025-01-04 05:35:00+00:00,2025-01-04 10:29:45+00:00,2025-01-04 10:05:00+00:00,2025-01-04 10:05:00+00:00,2025-01-04 09:39:58+00:00,Lower Mainland,49.007243,-122.686758,200011,7.942609447815747,WHITE ROCK,WHITE ROCK,SUBSTATION,IN SERVICE,49.03,-122.79
2533284,2507232.0,1602964060,Fort St. John,13900 block ROSE PRAIRIE RD,Under investigation,2,2025-01-04 08:25:00+00:00,2025-01-04 07:00:00+00:00,2025-01-04 09:25:03+00:00,2025-01-04 09:30:00+00:00,2025-01-04 09:30:00+00:00,2025-01-04 08:23:40+00:00,Northern,56.340134,-120.812828,200263,12.254339530108501,FORT ST. JOHN,NOT AVAILABLE,SUBSTATION,IN SERVICE,56.23,-120.82
2533285,2507233.0,2072041405,Nakusp,"MT SCAIA RADIO SITE, BENCH CREEK  HWY 6",Tree down across our wires,2,2025-01-04 17:15:00+00:00,2025-01-04 07:23:32+00:00,2025-01-04 20:25:37+00:00,2025-01-04 22:00:00+00:00,2025-01-04 22:00:00+00:00,2025-01-04 19:13:50+00:00,Okanagan/Kootenay,49.90809,-118.316474,200310,11.99328245023852,MONASHEE,NOT AVAILABLE,SUBSTATION,IN SERVICE,49.92,-118.15
2533281,2507229.0,521980323,Surrey,14900 block 107A AVE,Under investigation,1,2025-01-04 10:35:00+00:00,2025-01-04 07:32:00+00:00,2025-01-04 11:32:42+00:00,2025-01-04 11:30:00+00:00,2025-01-04 11:30:00+00:00,2025-01-04 10:34:35+00:00,Lower Mainland,49.197961,-122.806921,200002,2.561535947303265,WHALLEY,SURREY,SUBSTATION,IN SERVICE,49.19,-122.84
2533288,2507236.0,521980323,Richmond,"North of HWY 91 , East of NO 6 RD, West of BOUNDARY RD, South of MARINE WAY",Motor vehicle accident,1913,2025-01-04 15:20:00+00:00,2025-01-04 10:42:51+00:00,2025-01-04 22:35:35+00:00,2025-01-04 23:00:00+00:00,2025-01-04 23:00:00+00:00,2025-01-04 18:26:48+00:00,Lower Mainland,49.184803,-123.006816,200103,2.737317378035324,CROWN PAPER,NOT AVAILABLE,SUBSTATION,IN SERVICE,49.19,-122.97
2533289,2507237.0,521980323,Richmond,"West of HWY 91 , East of NO 6 RD, South of RIVER RD, North of BLUNDELL RD",Motor vehicle accident,536,2025-01-04 11:55:00+00:00,2025-01-04 11:51:00+00:00,2025-01-04 22:35:35+00:00,2025-01-04 23:00:00+00:00,2025-01-04 23:00:00+00:00,2025-01-04 18:23:27+00:00,Lower Mainland,49.172601,-122.992679,200101,1.8839407032240991,LAFARGE NO. 1,NOT AVAILABLE,SUBSTATION,IN SERVICE,49.16,-123.01
2533291,2507239.0,521980323,Delta,"East of 72ND ST, South of LADNER TRUNK RD, West of 96TH ST",Under investigation,34,2025-01-04 16:15:00+00:00,2025-01-04 15:36:00+00:00,2025-01-04 17:08:10+00:00,2025-01-04 17:45:00+00:00,2025-01-04 17:45:00+00:00,2025-01-04 16:13:52+00:00,Lower Mainland,49.074464,-122.98397,200081,3.719115152817182,BOUNDARY BAY E,NOT AVAILABLE,SUBSTATION,IN SERVICE,49.06,-123.03
2533295,2507243.0,521980323,Langley,27200 block 28A AVE,Equipment failure,5,2025-01-04 21:45:00+00:00,2025-01-04 16:16:00+00:00,2025-01-04 22:35:35+00:00,2025-01-04 22:05:00+00:00,2025-01-04 22:05:00+00:00,2025-01-04 21:46:30+00:00,Lower Mainland,49.054311,-122.468673,202422,5.99165787591562,UNKNOWN202422,NOT AVAILABLE,SUBSTATION,IN SERVICE,49.07,-122.39
2533298,2507246.0,1812901382,Saanich,700 block ROGERS AVE,Planned work being done on our equipment,1,2025-01-04 16:25:00+00:00,2025-01-04 16:23:55+00:00,2025-01-04 17:32:51+00:00,2025-01-04 19:00:00+00:00,2025-01-04 19:00:00+00:00,2025-01-04 16:26:00+00:00,South VI,48.47506,-123.38095,200069,1.6437278487078228,GEORGE TRIPP,SAANICH,SUBSTATION,IN SERVICE,48.47,-123.36
2533301,2507249.0,521980323,Richmond,6500 block NO 6 RD,Under investigation,1,2025-01-04 17:25:00+00:00,2025-01-04 16:27:00+00:00,2025-01-04 19:07:22+00:00,2025-01-04 19:25:00+00:00,2025-01-04 19:25:00+00:00,2025-01-04 17:26:18+00:00,Lower Mainland,49.164473,-123.068672,200003,2.907627404775247,CAMBIE,NOT AVAILABLE,SUBSTATION,IN SERVICE,49.19,-123.06
2533302,2507250.0,725364552,Kamloops,"300 block CHILCOTIN RD, 100 block KOOTENAY WAY",Planned work being done on our equipment,2,2025-01-04 17:05:00+00:00,2025-01-04 17:02:06+00:00,2025-01-04 23:24:14+00:00,2025-01-05 00:00:00+00:00,2025-01-05 00:00:00+00:00,2025-01-04 23:04:52+00:00,Thompson/Shuswap,50.691501,-120.334889,200284,2.9649820847026187,DOUGLAS STREET,KAMLOOPS,SUBSTATION,IN SERVICE,50.67,-120.31
2533304,2507252.0,521980323,Abbotsford,"North of MT WADDINGTON AVE, East of CLEARBROOK RD, West of TRETHEWEY ST, South of MOUAT DR",Motor vehicle accident,680,2025-01-04 20:00:00+00:00,2025-01-04 17:23:36+00:00,2025-01-05 03:34:41+00:00,2025-01-05 06:00:00+00:00,2025-01-05 06:00:00+00:00,2025-01-05 02:29:02+00:00,Lower Mainland,49.055185,-122.332067,200149,2.858732412790002,CLAYBURN,NOT AVAILABLE,SUBSTATION,IN SERVICE,49.07,-122.3
2533311,2507259.0,1602896846,Courtenay,"North of STEPHEN RD, East of HEADQUARTERS RD, South of BRIDGES RD, West of RENNISON RD",Work being done on our equipment,43,,2025-01-04 17:50:47+00:00,2025-01-04 20:47:09+00:00,,,2025-01-04 20:03:24+00:00,North VI,49.724971,-125.012627,200036,3.4875658631541486,COMOX,COURTENAY,SUBSTATION,IN SERVICE,49.71,-124.97
2533318,2507266.0,521980323,Powell River,7000 block TAHSIS ST,Under investigation,1,2025-01-04 19:45:00+00:00,2025-01-04 18:41:00+00:00,2025-01-04 20:25:37+00:00,2025-01-04 20:45:00+00:00,2025-01-04 20:45:00+00:00,2025-01-04 19:45:04+00:00,Lower Mainland,49.806333,-124.517304,200152,0.6640597466282858,GRIEF POINT,POWELL RIVER,SUBSTATION,IN SERVICE,49.81,-124.51
2533316,2507264.0,1812901382,Sooke,2200 block PHILLIPS RD,No Known Message,3,2025-01-04 20:25:00+00:00,2025-01-04 18:41:00+00:00,2025-01-04 21:32:58+00:00,2025-01-04 22:25:00+00:00,2025-01-04 22:25:00+00:00,2025-01-04 20:21:50+00:00,South VI,48.388958,-123.71114,202385,0.8307031270862536,SOOKE,NOT AVAILABLE,SUBSTATION,IN SERVICE,48.39,-123.7
2533319,2507267.0,1812901382,Saanich,4100 block WILKINSON RD,Planned work being done on our equipment,4,2025-01-04 18:50:00+00:00,2025-01-04 18:46:51+00:00,2025-01-04 19:32:49+00:00,2025-01-04 20:00:00+00:00,2025-01-04 20:00:00+00:00,2025-01-04 18:47:54+00:00,South VI,48.478772,-123.411382,200061,1.4007799212925856,GOWARD,NOT AVAILABLE,SUBSTATION,IN SERVICE,48.49,-123.42
2533323,2507271.0,521980323,Chilliwack,48900 block YALE RD,Under investigation,1,,2025-01-04 19:02:00+00:00,2025-01-04 19:32:49+00:00,,,2025-01-04 19:12:24+00:00,Lower Mainland,49.176763,-121.869855,202029,5.874564795226645,UNKNOWN202029,CHILLIWACK,SUBSTATION,IN SERVICE,49.17,-121.95
2533325,2507273.0,1602896846,Campbell River,3100 - 3200 block S ISLAND HWY,Equipment failure,6,2025-01-04 19:40:00+00:00,2025-01-04 19:18:00+00:00,2025-01-04 23:08:56+00:00,,,2025-01-04 20:27:04+00:00,North VI,49.957377,-125.207015,200032,7.083225388607107,OYSTER RIVER,NOT AVAILABLE,SUBSTATION,IN SERVICE,49.9,-125.25
2533330,2507278.0,521980323,Vancouver,1700 block W 58TH AVE,Under investigation,1,2025-01-04 20:25:00+00:00,2025-01-04 19:35:00+00:00,2025-01-04 21:32:58+00:00,2025-01-04 21:45:00+00:00,2025-01-04 21:45:00+00:00,2025-01-04 20:35:32+00:00,Lower Mainland,49.21886,-123.146299,200089,1.5888348862190176,GEORGE DICKIE,VANCOUVER,SUBSTATION,IN SERVICE,49.23,-123.16
2533338,2507286.0,848340027,100 Mile House,MULLIGAN DR P17N,Under investigation,1,2025-01-04 21:15:00+00:00,2025-01-04 19:58:00+00:00,2025-01-04 22:27:19+00:00,2025-01-04 22:00:00+00:00,2025-01-04 22:00:00+00:00,2025-01-04 21:15:26+00:00,Central Interior,51.581555,-121.130465,200187,14.049513913811612,100 MILE HOUSE,NOT AVAILABLE,SUBSTATION,IN SERVICE,51.66,-121.29
2533342,2507290.0,1812901382,Saanich,700 block VANALMAN AVE,Planned work being done on our equipment,3,2025-01-04 20:55:00+00:00,2025-01-04 20:51:13+00:00,2025-01-04 22:27:19+00:00,2025-01-04 22:00:00+00:00,2025-01-04 22:00:00+00:00,2025-01-04 20:53:18+00:00,South VI,48.482126,-123.393475,200061,2.142012049396665,GOWARD,NOT AVAILABLE,SUBSTATION,IN SERVICE,48.49,-123.42
2533350,2507301.0,521980323,Chilliwack,"North of WELLINGTON AVE, West of YOUNG RD, East of MILL ST, South of VICTORIA AVE",Under investigation,4,,2025-01-04 22:02:00+00:00,2025-01-04 22:27:19+00:00,,,2025-01-04 22:02:52+00:00,Lower Mainland,49.171775,-121.952992,202029,0.29371640201567456,UNKNOWN202029,CHILLIWACK,SUBSTATION,IN SERVICE,49.17,-121.95
2533352,2507303.0,1812901382,Saanich,4100 block GLANFORD AVE,Planned work being done on our equipment,1,2025-01-04 22:20:00+00:00,2025-01-04 22:12:44+00:00,2025-01-04 23:08:56+00:00,2025-01-04 23:30:00+00:00,2025-01-04 23:30:00+00:00,2025-01-04 22:16:43+00:00,South VI,48.476426,-123.391443,200069,2.425578064014259,GEORGE TRIPP,SAANICH,SUBSTATION,IN SERVICE,48.47,-123.36
2533355,2507306.0,521980323,Chilliwack,45900 block WELLINGTON AVE,Under investigation,1,2025-01-04 23:10:00+00:00,2025-01-04 22:16:00+00:00,2025-01-05 00:55:16+00:00,2025-01-05 00:30:00+00:00,2025-01-05 00:30:00+00:00,2025-01-04 23:28:40+00:00,Lower Mainland,49.171519,-121.9528,202029,0.264510130427523,UNKNOWN202029,CHILLIWACK,SUBSTATION,IN SERVICE,49.17,-121.95
2533362,2507313.0,2072041405,Nakusp,"BENCH CREEK  HWY 6, MT SCAIA RADIO SITE",Under investigation,2,2025-01-05 01:00:00+00:00,2025-01-04 22:36:39+00:00,2025-01-05 03:04:32+00:00,,,2025-01-05 01:19:03+00:00,Okanagan/Kootenay,49.90809,-118.316474,200310,11.99328245023852,MONASHEE,NOT AVAILABLE,SUBSTATION,IN SERVICE,49.92,-118.15
2533364,2507315.0,725364552,Kamloops,"East of SCHUBERT DR, South of KOOTENAY WAY, West of CHIEF LOUIS WAY, North of CHILCOTIN RD",Under investigation,253,2025-01-04 23:45:00+00:00,2025-01-04 22:47:18+00:00,2025-01-05 00:55:16+00:00,2025-01-05 00:00:00+00:00,2025-01-05 00:00:00+00:00,2025-01-04 23:42:18+00:00,Thompson/Shuswap,50.703771,-120.338768,200282,3.673562560250091,BROCKLEHURST,KAMLOOPS,SUBSTATION,IN SERVICE,50.71,-120.39
2533385,2507334.0,848340027,Prince George,"North of 9TH AVE, East of ALWARD ST, West of LAURIER CRS, South of 8TH AVE",Under investigation,1,2025-01-05 01:40:00+00:00,2025-01-04 23:56:00+00:00,2025-01-05 02:18:21+00:00,,,2025-01-05 00:39:42+00:00,Central Interior,53.916654,-122.765462,200203,1.8755453946692386,PATRICIA,PRINCE GEORGE,SUBSTATION,IN SERVICE,53.9,-122.77
2533384,2507333.0,1812901382,Galiano Island,MONTAGUE TERMINAL,Tree down across our wires,1,2025-01-05 01:40:00+00:00,2025-01-04 23:57:20+00:00,2025-01-05 03:04:32+00:00,2025-01-05 02:30:00+00:00,2025-01-05 02:30:00+00:00,2025-01-05 02:09:50+00:00,South VI,48.892871,-123.425444,201840,0.4613685043816125,UNKNOWN201840,NOT AVAILABLE,SUBSTATION,IN SERVICE,48.89,-123.43
2533387,2507336.0,1602896846,Nanaimo,3900 - 4000 block ROSS RD,Under investigation,9,2025-01-05 02:10:00+00:00,2025-01-05 00:00:00+00:00,2025-01-05 03:04:32+00:00,2025-01-05 02:30:00+00:00,2025-01-05 02:30:00+00:00,2025-01-05 02:06:24+00:00,North VI,49.215437,-124.013183,200045,2.9862298758750287,NORTHFIELD,NANAIMO,SUBSTATION,IN SERVICE,49.19,-124.0
2533386,2507335.0,521980323,Abbotsford,300 block FADDEN RD,Bird contacting our wires,1,2025-01-05 03:15:00+00:00,2025-01-05 00:00:00+00:00,2025-01-05 04:12:23+00:00,2025-01-05 03:45:00+00:00,2025-01-05 03:45:00+00:00,2025-01-05 03:21:50+00:00,Lower Mainland,49.00845,-122.206703,200169,6.66698393984341,TRANS MOUNTAIN,NOT AVAILABLE,SUBSTATION,IN SERVICE,49.06,-122.16
2533388,2507337.0,521980323,Coquitlam,500 block DELESTRE AVE,Under investigation,5,2025-01-05 01:20:00+00:00,2025-01-05 00:05:00+00:00,2025-01-05 03:04:32+00:00,,,2025-01-05 01:20:13+00:00,Lower Mainland,49.241728,-122.88949,200111,2.170241446233995,BARNARD,BURNABY,SUBSTATION,IN SERVICE,49.26,-122.9
2533394,2507343.0,725364552,Kamloops,SAVONA MTN,Under investigation,4,2025-01-05 17:00:00+00:00,2025-01-05 01:36:42+00:00,2025-01-05 16:10:50+00:00,,,2025-01-05 15:00:55+00:00,Thompson/Shuswap,50.69852,-120.817434,200277,6.945520270091979,SAVONA,NOT AVAILABLE,SUBSTATION,IN SERVICE,50.76,-120.8
2533398,2507347.0,521980323,Surrey,"5900 block 128 ST, 5900 block 128TH ST",Under investigation,11,,2025-01-05 04:43:09+00:00,2025-01-05 08:12:21+00:00,,,2025-01-05 06:37:39+00:00,Lower Mainland,49.110955,-122.867756,200120,3.0063271322846292,SURREY,SURREY,SUBSTATION,IN SERVICE,49.1,-122.83
2533399,2507348.0,521980323,Vancouver,3600 block CORDIALE DR,Under investigation,19,2025-01-05 20:25:00+00:00,2025-01-05 05:51:11+00:00,2025-01-05 22:08:52+00:00,,,2025-01-05 20:25:46+00:00,Lower Mainland,49.209595,-123.025227,200003,3.336274007698926,CAMBIE,NOT AVAILABLE,SUBSTATION,IN SERVICE,49.19,-123.06
2533400,2507349.0,1602896846,Thetis/ Penelakut Is,0 block PILKEY POINT RD,Equipment failure,2,2025-01-05 15:40:00+00:00,2025-01-05 06:32:00+00:00,2025-01-05 16:41:18+00:00,2025-01-05 16:45:00+00:00,2025-01-05 16:45:00+00:00,2025-01-05 16:00:57+00:00,North VI,48.984683,-123.675232,200051,10.577456212474038,LADYSMITH,NOT AVAILABLE,SUBSTATION,IN SERVICE,48.98,-123.82
2533401,2507350.0,2072041405,Nakusp,"BENCH CREEK  HWY 6, MT SCAIA RADIO SITE",Under investigation,2,2025-01-05 22:20:00+00:00,2025-01-05 07:26:38+00:00,2025-01-05 23:47:13+00:00,,,2025-01-05 22:56:17+00:00,Okanagan/Kootenay,49.90809,-118.316474,200310,11.99328245023852,MONASHEE,NOT AVAILABLE,SUBSTATION,IN SERVICE,49.92,-118.15
2533403,2507352.0,521980323,"Abbotsford, Mission","West of BEHARRELL RD, North of BELL RD, East of COMMERCIAL AVE, South of LOUGHEED HWY",Motor vehicle accident,146,2025-01-05 11:05:00+00:00,2025-01-05 09:58:33+00:00,2025-01-05 13:27:23+00:00,2025-01-05 13:00:00+00:00,2025-01-05 13:00:00+00:00,2025-01-05 11:56:01+00:00,Lower Mainland,49.124779,-122.274056,200143,3.746772669988469,MISSION,MISSION,SUBSTATION,IN SERVICE,49.14,-122.32
2533404,2507353.0,1812901382,Duncan,"North-West of DOGWOOD AVE, South of ARBUTUS AVE, East of BROWNSEY AVE",Equipment failure,18,2025-01-05 17:20:00+00:00,2025-01-05 11:19:00+00:00,2025-01-05 19:47:14+00:00,2025-01-05 21:00:00+00:00,2025-01-05 21:00:00+00:00,2025-01-05 17:49:21+00:00,South VI,48.781964,-123.718216,200057,2.5154118128495924,KOKSILAH,NOT AVAILABLE,SUBSTATION,IN SERVICE,48.76,-123.71
2533418,2507367.0,1602964060,Dawson Creek,"8 08 81 16, SE 1/4 S8 T81 R16, N 1/2 S7 T81 R16, 4400 block TRIANGLE RD, 235 RD, 4400 block 14TH RD, NE1/4 S18 T81 R16, LSD SW 22 81 16 W6M, N 1-2 S7 T81 R16, SE 1/4 SS19 T81 R16",Wire down,13,2025-01-05 13:20:00+00:00,2025-01-05 11:39:00+00:00,2025-01-05 14:08:11+00:00,2025-01-05 14:30:00+00:00,2025-01-05 14:30:00+00:00,2025-01-05 13:18:19+00:00,Northern,56.019853,-120.459942,200267,19.103259211856436,MCMAHON GAS TAP,NOT AVAILABLE,TAP,IN SERVICE,56.14,-120.68
2533426,2507374.0,521980323,Richmond,"South of DECOURCY CRS, North of TRUMOND AVE, West of BAIRDMORE CRS",Under investigation,496,2025-01-05 15:25:00+00:00,2025-01-05 14:22:12+00:00,2025-01-05 16:30:10+00:00,2025-01-05 16:30:00+00:00,2025-01-05 16:30:00+00:00,2025-01-05 15:46:09+00:00,Lower Mainland,49.152759,-123.191232,201835,2.659312024306029,UNKNOWN201835,RICHMOND,SUBSTATION,IN SERVICE,49.13,-123.18
2533427,2507375.0,521980323,Langley,"South-East of 264TH ST, North of 60TH AVE, West of 268TH ST",Equipment failure,31,2025-01-05 18:20:00+00:00,2025-01-05 14:52:00+00:00,2025-01-05 20:25:53+00:00,2025-01-05 20:30:00+00:00,2025-01-05 20:30:00+00:00,2025-01-05 18:20:24+00:00,Lower Mainland,49.114778,-122.486986,200145,1.3456593199799909,GLOUCESTER,NOT AVAILABLE,SUBSTATION,IN SERVICE,49.11,-122.47
2533435,2507383.0,521980323,Surrey,"East of 184TH ST, North of 24TH AVE, West of 190TH ST",Planned work being done on our equipment,15,,2025-01-05 15:40:55+00:00,2025-01-05 17:24:44+00:00,2025-01-05 17:00:00+00:00,2025-01-05 17:00:00+00:00,2025-01-05 15:45:03+00:00,Lower Mainland,49.054827,-122.703311,200010,5.046581396469957,CLOVERDALE,SURREY,SUBSTATION,IN SERVICE,49.1,-122.71
2533435,2507383.0,521980323,Surrey,"East of 184TH ST, North of 24TH AVE, West of 190TH ST",Planned work being done on our equipment,15,,2025-01-05 15:40:55+00:00,2025-01-05 17:24:44+00:00,2025-01-05 17:00:00+00:00,2025-01-05 17:00:00+00:00,2025-01-05 15:45:03+00:00,Lower Mainland,49.054827,-122.703311,200010,5.046581396469957,CLOVERDALE,SURREY,SUBSTATION,IN SERVICE,49.1,-122.71
2533435,2507383.0,521980323,Surrey,"East of 184TH ST, North of 24TH AVE, West of 190TH ST",Planned work being done on our equipment,15,,2025-01-05 15:40:55+00:00,2025-01-06 03:04:10+00:00,2025-01-06 02:30:00+00:00,2025-01-06 02:30:00+00:00,2025-01-06 01:34:30+00:00,Lower Mainland,49.054827,-122.703311,200010,5.046581396469957,CLOVERDALE,SURREY,SUBSTATION,IN SERVICE,49.1,-122.71
2533435,2507383.0,521980323,Surrey,"East of 184TH ST, North of 24TH AVE, West of 190TH ST",Planned work being done on our equipment,15,,2025-01-05 15:40:55+00:00,2025-01-06 03:04:10+00:00,2025-01-06 02:30:00+00:00,2025-01-06 02:30:00+00:00,2025-01-06 01:34:30+00:00,Lower Mainland,49.054827,-122.703311,200010,5.046581396469957,CLOVERDALE,SURREY,SUBSTATION,IN SERVICE,49.1,-122.71
2533436,2507384.0,1812901382,Saanich,1500 block ELM ST,Under investigation,12,2025-01-05 17:05:00+00:00,2025-01-05 16:23:00+00:00,2025-01-05 18:12:24+00:00,2025-01-05 17:45:00+00:00,2025-01-05 17:45:00+00:00,2025-01-05 17:35:32+00:00,South VI,48.459251,-123.336996,200069,2.074945175030112,GEORGE TRIPP,SAANICH,SUBSTATION,IN SERVICE,48.47,-123.36
2533438,2507386.0,1812901382,Colwood,"West of WISHART RD, South-East of SOOKE RD, North of RIDLEY DR",Planned work being done on our equipment,87,2025-01-05 16:40:00+00:00,2025-01-05 16:35:36+00:00,2025-01-05 20:25:53+00:00,2025-01-05 20:00:00+00:00,2025-01-05 20:00:00+00:00,2025-01-05 16:38:21+00:00,South VI,48.434736,-123.487581,200065,1.7543952113307477,COLWOOD,LANGFORD,SUBSTATION,IN SERVICE,48.44,-123.51
2533441,2507389.0,725364552,Clinton,South of HWY 97,Planned work being done on our equipment,564,2025-01-05 17:05:00+00:00,2025-01-05 16:59:31+00:00,2025-01-05 22:27:40+00:00,2025-01-06 00:00:00+00:00,2025-01-06 00:00:00+00:00,2025-01-05 17:36:31+00:00,Thompson/Shuswap,51.118423,-121.522495,200180,18.728140309567024,KELLY LAKE,NOT AVAILABLE,SUBSTATION,IN SERVICE,51.02,-121.74
2533443,2507391.0,521980323,Chilliwack,45200 - 45300 block STEVENSON RD,Equipment failure,4,2025-01-05 21:10:00+00:00,2025-01-05 17:09:00+00:00,2025-01-05 23:09:15+00:00,2025-01-05 23:00:00+00:00,2025-01-05 23:00:00+00:00,2025-01-05 21:13:15+00:00,Lower Mainland,49.122894,-121.970859,200172,3.1158609828149957,TAP200172,NOT AVAILABLE,TAP,IN SERVICE,49.15,-121.96
2533447,2507395.0,521980323,Vancouver,"North of BROADWAY , East of BURRARD ST, South of 1ST AVE, West of GRANVILLE ST",Planned work being done on our equipment,25,2025-01-05 17:30:00+00:00,2025-01-05 17:24:15+00:00,2025-01-05 23:09:15+00:00,2025-01-06 00:00:00+00:00,2025-01-06 00:00:00+00:00,2025-01-05 22:41:38+00:00,Lower Mainland,49.270114,-123.141531,200093,1.9100409239422043,DAL GRAUER,VANCOUVER,SUBSTATION,IN SERVICE,49.28,-123.12
2533458,2507406.0,725364552,Kamloops,"North of CAMPBELL MEADOWS RD, East of GOWAN RD",Under investigation,16,2025-01-05 20:10:00+00:00,2025-01-05 18:58:39+00:00,2025-01-05 21:32:33+00:00,2025-01-05 21:10:00+00:00,2025-01-05 21:10:00+00:00,2025-01-05 21:02:04+00:00,Thompson/Shuswap,50.57271,-120.057995,200304,16.480762168690084,MONTE LAKE,NOT AVAILABLE,SUBSTATION,IN SERVICE,50.52,-119.84
2533468,2507416.0,848340027,Prince George,3500 block TABOR LAKE SOUTH RD,Motor vehicle accident,1,2025-01-05 21:50:00+00:00,2025-01-05 20:38:01+00:00,2025-01-05 22:27:40+00:00,,,2025-01-05 21:48:27+00:00,Central Interior,53.894551,-122.59237,200199,5.08689215058645,WILLISTON,NOT AVAILABLE,SUBSTATION,IN SERVICE,53.85,-122.61
2533469,2507417.0,521980323,Powell River,"1800 block STURT BAY RD, 1900 block NICHOLAS AVE",Under investigation,4,2025-01-06 01:00:00+00:00,2025-01-05 20:41:00+00:00,2025-01-06 02:16:33+00:00,,,2025-01-05 21:13:11+00:00,Lower Mainland,49.759756,-124.560509,200152,6.660544367443335,GRIEF POINT,POWELL RIVER,SUBSTATION,IN SERVICE,49.81,-124.51
2533473,2507421.0,1602964060,Daajing Giids,COPPER BAY RD P99,Tree down across our wires,1,2025-01-05 22:05:00+00:00,2025-01-05 21:39:17+00:00,2025-01-06 00:53:21+00:00,2025-01-06 00:05:00+00:00,2025-01-06 00:05:00+00:00,2025-01-05 22:56:28+00:00,Northern,53.193977,-131.775639,200238,149.40013112476555,RIDLEY COAL,NOT AVAILABLE,SUBSTATION,IN SERVICE,54.23,-130.33
2533476,2507424.0,2072041405,Invermere,"500 block 4TH AVE, 400 block 6TH ST",Bird contacting our wires,4,2025-01-05 22:50:00+00:00,2025-01-05 22:06:00+00:00,2025-01-05 23:09:15+00:00,,,2025-01-05 22:42:19+00:00,Okanagan/Kootenay,50.508328,-116.026811,200326,1.905032287138277,ATHALMER TAP,NOT AVAILABLE,TAP,IN SERVICE,50.51,-116.0
2533479,2507427.0,725364552,Kamloops,"West of SHAW RD, South of HEFFLEY LOUIS CREEK RD, East of LAKESHORE RD",Tree down across our wires,22,,2025-01-05 23:12:00+00:00,2025-01-06 02:16:33+00:00,,,2025-01-06 00:25:45+00:00,Thompson/Shuswap,50.84278,-120.08524,200292,12.976821320454702,TOLKO TAP,NOT AVAILABLE,TAP,IN SERVICE,50.84,-120.27
2533480,2507428.0,521980323,Langley,2600 block 210 ST,No Known Message,4,2025-01-06 00:20:00+00:00,2025-01-05 23:27:00+00:00,2025-01-06 02:16:33+00:00,2025-01-06 01:50:00+00:00,2025-01-06 01:50:00+00:00,2025-01-06 00:18:13+00:00,Lower Mainland,49.050263,-122.641622,200008,6.196860621605084,MCLELLAN,NOT AVAILABLE,SUBSTATION,IN SERVICE,49.1,-122.68
2533483,2507431.0,1602964060,Dawson Creek,10600 block 8 ST,Under investigation,2,2025-01-06 07:05:00+00:00,2025-01-06 06:21:00+00:00,2025-01-06 08:14:28+00:00,2025-01-06 08:30:00+00:00,2025-01-06 08:30:00+00:00,2025-01-06 07:26:25+00:00,Northern,55.75241,-120.223743,200268,3.815219943927004,DAWSON CREEK,NOT AVAILABLE,SUBSTATION,IN SERVICE,55.78,-120.26
2533487,2507435.0,1602964060,Fort St. James,"0 block CEMETARY RD, TAKLA LOT 103, 0 block TAKLA LANDING, TAKLA LANDING 102, TAKLA LANDING RD 145A, TAKLA L72 NEW P4, HUDSONS BAY CRES, 0 block CHURCH LOOP, TAKLA L38 P24/1, 100 block MAIN ST...",Under investigation,150,,2025-01-06 10:19:53+00:00,2025-01-06 11:08:31+00:00,,,2025-01-06 10:28:41+00:00,Northern,55.481985,-125.968593,200224,68.53100772394056,BABINE LAKE,NOT AVAILABLE,SUBSTATION,IN SERVICE,54.88,-126.2
2533488,2507436.0,521980323,Richmond,11500 block EBURNE WAY,Under investigation,1,2025-01-06 13:05:00+00:00,2025-01-06 10:54:27+00:00,2025-01-06 14:10:03+00:00,,,2025-01-06 13:04:40+00:00,Lower Mainland,49.201053,-123.096763,202706,1.3836642596743494,WESTCOAST CELLUFIBRE,VANCOUVER,SUBSTATION,IN SERVICE,49.21,-123.11
2533490,2507438.0,2072041405,Golden,"North-West of TRANS CANADA HWY, East of Trans Can HWY, South of TRANS CAN HWY",Under investigation,692,2025-01-06 14:30:00+00:00,2025-01-06 12:39:01+00:00,2025-01-06 17:47:13+00:00,2025-01-06 19:00:00+00:00,2025-01-06 19:00:00+00:00,2025-01-06 17:33:28+00:00,Okanagan/Kootenay,51.435105,-117.065353,200330,17.715497360015124,GOLDEN,GOLDEN,SUBSTATION,IN SERVICE,51.29,-116.96
2533492,2507440.0,521980323,Sechelt,"8000 - 8100 block BELAIR RD, HWY 101 @ BROOKS RD ORN, 12200 block SUNSHINECOAST HWY, 9600 - 9700 block SECRET RD, 5400 block ANDERSON RD, 9400 block WALKER RD, 5400 block SAN SOUCI RD, 5200 - 5300 block TIDEWAYS TRA, 5200 - 5300 block TIDEWAYS TRAIL, 9900 - 10000 block COVE WAY...",Under investigation,1136,2025-01-06 16:45:00+00:00,2025-01-06 15:32:44+00:00,2025-01-06 18:14:08+00:00,2025-01-06 18:30:00+00:00,2025-01-06 18:30:00+00:00,2025-01-06 16:43:04+00:00,Lower Mainland,49.534347,-123.936653,200157,14.770064163530131,SECHELT,NOT AVAILABLE,SUBSTATION,IN SERVICE,49.48,-123.75
2533493,2507441.0,725364552,Revelstoke,3600 block TRANS CAN HWY,Under investigation,1,2025-01-06 18:10:00+00:00,2025-01-06 15:50:00+00:00,2025-01-06 19:07:42+00:00,,,2025-01-06 18:31:35+00:00,Thompson/Shuswap,50.980761,-118.299282,200307,7.025189960689463,ILLECILLEWAET,NOT AVAILABLE,SUBSTATION,IN SERVICE,50.99,-118.2
2533495,2507443.0,521980323,Langley,4700 block 207A ST,Equipment failure,1,2025-01-06 21:15:00+00:00,2025-01-06 16:11:00+00:00,2025-01-07 02:13:36+00:00,2025-01-07 01:00:00+00:00,2025-01-07 01:00:00+00:00,2025-01-06 23:29:24+00:00,Lower Mainland,49.088006,-122.648653,200008,2.6435386016452087,MCLELLAN,NOT AVAILABLE,SUBSTATION,IN SERVICE,49.1,-122.68
2533496,2507444.0,521980323,Gibsons,900 block O'SHEA RD,Planned work being done on our equipment,41,2025-01-06 16:20:00+00:00,2025-01-06 16:18:31+00:00,2025-01-06 17:09:19+00:00,2025-01-06 18:00:00+00:00,2025-01-06 18:00:00+00:00,2025-01-06 16:19:41+00:00,Lower Mainland,49.403199,-123.519152,200159,1.005171635118021,GIBSONS,NOT AVAILABLE,SUBSTATION,IN SERVICE,49.41,-123.51
2533498,2507446.0,521980323,Abbotsford,"North of INTERNATIONAL AVE, South of MARSHALL RD, East of GLADWIN RD, West of ANGUS CAMPBELL RD",Wire down,776,2025-01-06 19:20:00+00:00,2025-01-06 16:19:35+00:00,2025-01-06 21:24:42+00:00,2025-01-06 22:20:00+00:00,2025-01-06 22:20:00+00:00,2025-01-06 20:21:06+00:00,Lower Mainland,49.016353,-122.275488,200150,4.967272796235735,ABBOTSFORD,ABBOTSFORD,SUBSTATION,IN SERVICE,49.06,-122.29
2533497,2507445.0,521980323,Burnaby,"East of INGLETON AVE, North of PANDORA ST, South of DUNDAS ST, West of GILMORE AVE",Planned work being done on our equipment,21,2025-01-06 16:25:00+00:00,2025-01-06 16:20:31+00:00,2025-01-06 22:09:41+00:00,2025-01-07 00:30:00+00:00,2025-01-07 00:30:00+00:00,2025-01-06 16:22:07+00:00,Lower Mainland,49.283367,-123.015574,200097,1.5206273140315782,HORNE PAYNE,BURNABY,SUBSTATION,IN SERVICE,49.27,-123.02
2533501,2507449.0,521980323,Vancouver,"East of HIGHBURY ST, South of 13TH AVE, West of ALMA ST, North of 14TH AVE",Planned work being done on our equipment,14,2025-01-06 16:30:00+00:00,2025-01-06 16:23:52+00:00,2025-01-06 22:09:41+00:00,2025-01-07 00:00:00+00:00,2025-01-07 00:00:00+00:00,2025-01-06 17:28:55+00:00,Lower Mainland,49.260255,-123.187178,200091,1.4718197881840889,CAMOSUN,VANCOUVER,SUBSTATION,IN SERVICE,49.25,-123.2
2533504,2507452.0,521980323,Langley,4700 block 207A ST,Equipment failure,1,2025-01-06 20:55:00+00:00,2025-01-06 16:30:00+00:00,2025-01-07 02:13:36+00:00,2025-01-07 01:00:00+00:00,2025-01-07 01:00:00+00:00,2025-01-06 23:29:09+00:00,Lower Mainland,49.088237,-122.648347,200008,2.6500233501387873,MCLELLAN,NOT AVAILABLE,SUBSTATION,IN SERVICE,49.1,-122.68
2533508,2507456.0,521980323,Burnaby,"North of GRANT ST, South of KITCHENER ST, West of MADISON AVE, East of CARLETON AVE",Planned work being done on our equipment,34,2025-01-06 16:45:00+00:00,2025-01-06 16:43:29+00:00,2025-01-06 22:38:27+00:00,2025-01-07 00:00:00+00:00,2025-01-07 00:00:00+00:00,2025-01-06 16:45:13+00:00,Lower Mainland,49.271544,-123.010524,200097,0.7086248398041926,HORNE PAYNE,BURNABY,SUBSTATION,IN SERVICE,49.27,-123.02
2533511,2507459.0,725364552,Kamloops,1600 block VALLEYVIEW DR,Vandalism,1,2025-01-06 17:35:00+00:00,2025-01-06 16:47:11+00:00,2025-01-06 18:14:08+00:00,,,2025-01-06 17:32:10+00:00,Thompson/Shuswap,50.672398,-120.296393,200284,0.9952952144476422,DOUGLAS STREET,KAMLOOPS,SUBSTATION,IN SERVICE,50.67,-120.31
2533513,2507461.0,1602964060,"Port Edward, Prince Rupert","South of HWY 16 , North-East-West of SKEENA DR",Planned work being done on our equipment,533,2025-01-06 16:55:00+00:00,2025-01-06 16:54:13+00:00,2025-01-06 20:33:56+00:00,2025-01-06 21:00:00+00:00,2025-01-06 21:00:00+00:00,2025-01-06 20:02:14+00:00,Northern,54.036048,-130.290042,200240,21.57639936641742,PORT EWARDS,NOT AVAILABLE,SUBSTATION,IN SERVICE,54.23,-130.28
2533514,2507462.0,521980323,Vancouver,"6400 block ELGIN ST, 6400 block WINDSOR ST",Planned work being done on our equipment,18,2025-01-06 17:00:00+00:00,2025-01-06 16:56:15+00:00,2025-01-07 02:13:36+00:00,2025-01-07 01:00:00+00:00,2025-01-07 01:00:00+00:00,2025-01-06 23:25:55+00:00,Lower Mainland,49.225819,-123.08452,200098,0.5690948218781643,MAINWARING,VANCOUVER,SUBSTATION,IN SERVICE,49.23,-123.08
2533515,2507463.0,1602896846,Parksville,"1400 block NORTHWEST BAY RD, 1400 block NORTHWEST BAY",Planned work being done on our equipment,2,2025-01-06 17:00:00+00:00,2025-01-06 16:56:39+00:00,2025-01-06 19:07:42+00:00,2025-01-06 20:30:00+00:00,2025-01-06 20:30:00+00:00,2025-01-06 16:59:07+00:00,North VI,49.298644,-124.248724,202372,5.170495076875356,PARKSVILLE,NOT AVAILABLE,SUBSTATION,IN SERVICE,49.3,-124.32
2533517,2507465.0,521980323,Vancouver,"1600 block W 5TH AVE, 1600 block W 6TH AVE",Planned work being done on our equipment,3,2025-01-06 17:05:00+00:00,2025-01-06 16:58:32+00:00,2025-01-06 23:25:19+00:00,2025-01-07 01:00:00+00:00,2025-01-07 01:00:00+00:00,2025-01-06 22:59:52+00:00,Lower Mainland,49.266759,-123.141306,200090,1.9674270847158828,SPERLING,VANCOUVER,SUBSTATION,IN SERVICE,49.25,-123.15
2533521,2507469.0,521980323,"Delta, Richmond","West of 72ND ST, East of HWY 99 , South of DYKE RD, North of 49TH AVE",Under investigation,302,2025-01-06 17:45:00+00:00,2025-01-06 17:00:00+00:00,2025-01-06 19:47:05+00:00,,,2025-01-06 17:42:28+00:00,Lower Mainland,49.119253,-123.048268,202145,1.5837273656588833,UNKNOWN202145,NOT AVAILABLE,SUBSTATION,IN SERVICE,49.12,-123.07
2533519,2507467.0,521980323,North Vancouver,4400 block NOTTINGHAM RD,Planned work being done on our equipment,4,2025-01-06 17:05:00+00:00,2025-01-06 17:00:56+00:00,2025-01-07 02:13:36+00:00,2025-01-07 02:00:00+00:00,2025-01-07 02:00:00+00:00,2025-01-06 23:08:24+00:00,Lower Mainland,49.350198,-123.030344,200129,2.352351322990932,LYNN VALLEY,NORTH VANCOUVER DISTRICT,SUBSTATION,IN SERVICE,49.33,-123.04
2533522,2507470.0,521980323,Gibsons,"East of OCEANMOUNT BLV, West of ABBS RD, South of OSHEA RD, North of INGLIS RD",Planned work being done on our equipment,17,2025-01-06 17:05:00+00:00,2025-01-06 17:02:43+00:00,2025-01-06 19:32:52+00:00,2025-01-06 20:00:00+00:00,2025-01-06 20:00:00+00:00,2025-01-06 19:18:28+00:00,Lower Mainland,49.401332,-123.519382,200159,1.1788945162466107,GIBSONS,NOT AVAILABLE,SUBSTATION,IN SERVICE,49.41,-123.51
2533525,2507473.0,848340027,100 Mile House,"East of ALDER AVE, North of 5TH ST, South of 4TH ST, West of BIRCH AVE",Under investigation,20,2025-01-06 17:30:00+00:00,2025-01-06 17:06:00+00:00,2025-01-06 20:47:05+00:00,2025-01-06 20:30:00+00:00,2025-01-06 20:30:00+00:00,2025-01-06 20:02:02+00:00,Central Interior,51.640895,-121.296574,200187,2.1722558572670483,100 MILE HOUSE,NOT AVAILABLE,SUBSTATION,IN SERVICE,51.66,-121.29
2533525,2507473.0,848340027,100 Mile House,"East of ALDER AVE, North of 5TH ST, South of 4TH ST, West of BIRCH AVE",Under investigation,20,2025-01-06 17:30:00+00:00,2025-01-06 17:06:00+00:00,2025-01-06 20:47:05+00:00,2025-01-06 20:30:00+00:00,2025-01-06 20:30:00+00:00,2025-01-06 20:02:02+00:00,Central Interior,51.640895,-121.296574,200187,2.1722558572670483,100 MILE HOUSE,NOT AVAILABLE,SUBSTATION,IN SERVICE,51.66,-121.29
2533525,2507473.0,848340027,100 Mile House,"East of ALDER AVE, North of 5TH ST, South of 4TH ST, West of BIRCH AVE",Work being done on our equipment,20,2025-01-07 06:15:00+00:00,2025-01-06 17:06:00+00:00,2025-01-07 10:32:59+00:00,2025-01-07 10:30:00+00:00,2025-01-07 10:30:00+00:00,2025-01-07 07:08:25+00:00,Central Interior,51.640895,-121.296574,200187,2.1722558572670483,100 MILE HOUSE,NOT AVAILABLE,SUBSTATION,IN SERVICE,51.66,-121.29
2533525,2507473.0,848340027,100 Mile House,"East of ALDER AVE, North of 5TH ST, South of 4TH ST, West of BIRCH AVE",Work being done on our equipment,20,2025-01-07 06:15:00+00:00,2025-01-06 17:06:00+00:00,2025-01-07 10:32:59+00:00,2025-01-07 10:30:00+00:00,2025-01-07 10:30:00+00:00,2025-01-07 07:08:25+00:00,Central Interior,51.640895,-121.296574,200187,2.1722558572670483,100 MILE HOUSE,NOT AVAILABLE,SUBSTATION,IN SERVICE,51.66,-121.29
2533523,2507471.0,521980323,Maple Ridge,"11200 block CHARLTON ST, 20200 - 20300 block LORNE AVE",Planned work being done on our equipment,10,2025-01-06 17:10:00+00:00,2025-01-06 17:08:56+00:00,2025-01-06 22:09:41+00:00,2025-01-06 23:30:00+00:00,2025-01-06 23:30:00+00:00,2025-01-06 17:10:29+00:00,Lower Mainland,49.206855,-122.658209,200148,3.045138411863792,UNKNOWN200148,LANGLEY TWP,SUBSTATION,IN SERVICE,49.18,-122.65
2533524,2507472.0,1812901382,Sidney,2300 block BEVAN AVE,Planned work being done on our equipment,10,2025-01-06 17:10:00+00:00,2025-01-06 17:09:03+00:00,2025-01-06 18:35:28+00:00,2025-01-06 18:30:00+00:00,2025-01-06 18:30:00+00:00,2025-01-06 17:10:12+00:00,South VI,48.647363,-123.402374,200071,2.3248373591199067,SIDNEY,NORTH SAANICH,SUBSTATION,IN SERVICE,48.63,-123.42
2533527,2507475.0,521980323,Burnaby,6300 block THORNE AVE,Wire down,1,2025-01-06 17:45:00+00:00,2025-01-06 17:11:39+00:00,2025-01-06 19:47:05+00:00,2025-01-06 19:15:00+00:00,2025-01-06 19:15:00+00:00,2025-01-06 18:55:18+00:00,Lower Mainland,49.197613,-122.957598,200104,0.8643341748733698,TREE ISLAND,NOT AVAILABLE,SUBSTATION,IN SERVICE,49.19,-122.96
2533532,2507480.0,1812901382,"Oak Bay, Saanich",3100 block HUMBER RD,Motor vehicle accident,1,2025-01-06 23:30:00+00:00,2025-01-06 17:27:00+00:00,2025-01-07 02:13:36+00:00,,,2025-01-06 23:29:57+00:00,South VI,48.449104,-123.29243,200069,5.497669594440095,GEORGE TRIPP,SAANICH,SUBSTATION,IN SERVICE,48.47,-123.36
2533529,2507477.0,1812901382,Ganges,200 block BOOTH CANAL RD,Work being done on our equipment,2,2025-01-06 17:30:00+00:00,2025-01-06 17:28:40+00:00,2025-01-06 18:14:08+00:00,2025-01-06 18:00:00+00:00,2025-01-06 18:00:00+00:00,2025-01-06 17:30:04+00:00,South VI,48.859444,-123.533401,200073,0.9823067319340613,SALTSPRING TAP,NOT AVAILABLE,TAP,IN SERVICE,48.86,-123.52
2533533,2507481.0,1812901382,Victoria,"North of DALLAS RD, West of MOSS ST, East of LINDEN AVE, South of MAY ST",Planned work being done on our equipment,137,2025-01-06 17:35:00+00:00,2025-01-06 17:32:02+00:00,2025-01-06 20:09:42+00:00,2025-01-06 23:00:00+00:00,2025-01-06 23:00:00+00:00,2025-01-06 17:33:03+00:00,South VI,48.408924,-123.351979,200068,3.702527391283507,HORSEY,VICTORIA,SUBSTATION,IN SERVICE,48.44,-123.37
2533538,2507486.0,1602896846,Courtenay,"West of VETERANS MEMORIAL PKY, East of WENTWORTH RD, North of INGLEWOOD DR, South of TATTON RD",Planned work being done on our equipment,122,2025-01-06 17:40:00+00:00,2025-01-06 17:39:21+00:00,2025-01-06 20:09:42+00:00,2025-01-06 21:30:00+00:00,2025-01-06 21:30:00+00:00,2025-01-06 17:52:24+00:00,North VI,49.715949,-124.988966,200036,1.5156398644332825,COMOX,COURTENAY,SUBSTATION,IN SERVICE,49.71,-124.97
2533541,2507489.0,1812901382,Saanich,"3400 block TILLICUM RD, 300 block W BURNSIDE RD",Planned work being done on our equipment,2,2025-01-06 17:45:00+00:00,2025-01-06 17:43:13+00:00,2025-01-06 22:09:41+00:00,2025-01-06 23:00:00+00:00,2025-01-06 23:00:00+00:00,2025-01-06 17:44:33+00:00,South VI,48.455315,-123.392398,200067,1.792879472901209,ESQUIMALT,ESQUIMALT,SUBSTATION,IN SERVICE,48.44,-123.4
2533543,2507491.0,1812901382,Colwood,"300 block VIRAGO CRS, 200 block VIRAGO CRES",Planned work being done on our equipment,14,2025-01-06 17:50:00+00:00,2025-01-06 17:48:02+00:00,2025-01-07 00:51:15+00:00,2025-01-07 01:00:00+00:00,2025-01-07 01:00:00+00:00,2025-01-06 23:06:22+00:00,South VI,48.436197,-123.466828,200065,3.2127466864244774,COLWOOD,LANGFORD,SUBSTATION,IN SERVICE,48.44,-123.51
2533545,2507493.0,521980323,Abbotsford,"32300 block PEARDONVILLE RD, 2400 block ADELAIDE ST",Planned work being done on our equipment,9,2025-01-06 17:55:00+00:00,2025-01-06 17:53:50+00:00,2025-01-06 19:07:42+00:00,2025-01-06 20:00:00+00:00,2025-01-06 20:00:00+00:00,2025-01-06 17:55:26+00:00,Lower Mainland,49.045565,-122.328074,200150,3.205398827728283,ABBOTSFORD,ABBOTSFORD,SUBSTATION,IN SERVICE,49.06,-122.29
2533546,2507494.0,1812901382,"Central Saanich, Highlands, Saanich","South of SAUNDERS LN, West of SAANICH RD",Planned work being done on our equipment,278,2025-01-06 18:00:00+00:00,2025-01-06 17:56:05+00:00,2025-01-06 22:29:09+00:00,2025-01-06 23:00:00+00:00,2025-01-06 23:00:00+00:00,2025-01-06 18:09:25+00:00,South VI,48.552315,-123.47233,200070,4.9906893520576165,KEATING,CENTRAL SAANICH,SUBSTATION,IN SERVICE,48.57,-123.41
2533548,2507496.0,2072041405,Coldstream,5700 block PETWORTH RD,Planned work being done on our equipment,1,2025-01-06 18:00:00+00:00,2025-01-06 17:58:03+00:00,2025-01-06 21:47:04+00:00,2025-01-06 23:00:00+00:00,2025-01-06 23:00:00+00:00,2025-01-06 20:02:14+00:00,Okanagan/Kootenay,50.238369,-119.081893,200303,10.611152810095431,VERNON TERMINAL,NOT AVAILABLE,SUBSTATION,IN SERVICE,50.25,-119.23
2533549,2507497.0,521980323,Richmond,7000 block WILLIAMS RD,Planned work being done on our equipment,27,2025-01-06 18:00:00+00:00,2025-01-06 17:58:32+00:00,2025-01-06 19:47:05+00:00,2025-01-06 20:00:00+00:00,2025-01-06 20:00:00+00:00,2025-01-06 17:59:55+00:00,Lower Mainland,49.140911,-123.147292,200082,1.2291395551243713,STEVESTON,NOT AVAILABLE,SUBSTATION,IN SERVICE,49.13,-123.15
2533551,2507499.0,521980323,Surrey,16300 block 82 AVE,Planned work being done on our equipment,36,2025-01-06 18:05:00+00:00,2025-01-06 18:00:11+00:00,2025-01-06 23:10:11+00:00,2025-01-07 00:00:00+00:00,2025-01-07 00:00:00+00:00,2025-01-06 19:58:23+00:00,Lower Mainland,49.152547,-122.768781,200119,4.699984545281043,TAP200119,SURREY,TAP,IN SERVICE,49.12,-122.81
2533555,2507503.0,1812901382,Victoria,"West of MARY ST, East of SPRINGFIELD ST, North of ESQUIMALT RD, South of HENRY ST",Planned work being done on our equipment,18,2025-01-06 18:10:00+00:00,2025-01-06 18:09:50+00:00,2025-01-06 22:29:09+00:00,2025-01-07 00:00:00+00:00,2025-01-07 00:00:00+00:00,2025-01-06 18:11:20+00:00,South VI,48.431279,-123.387074,200067,1.360045475150378,ESQUIMALT,ESQUIMALT,SUBSTATION,IN SERVICE,48.44,-123.4
2533557,2507505.0,2072041405,Cranbrook,6100 block WOLF CREEK RD,Planned work being done on our equipment,1,2025-01-06 18:25:00+00:00,2025-01-06 18:20:47+00:00,2025-01-06 19:32:52+00:00,2025-01-06 20:30:00+00:00,2025-01-06 20:30:00+00:00,2025-01-06 18:44:06+00:00,Okanagan/Kootenay,49.792717,-115.730308,200324,22.144432220707262,KIMBERLEY,NOT AVAILABLE,SUBSTATION,IN SERVICE,49.66,-115.96
2533558,2507506.0,1812901382,Colwood,3300 block RAVENWOOD RD,Under investigation,1,2025-01-06 21:05:00+00:00,2025-01-06 18:25:00+00:00,2025-01-06 22:09:41+00:00,2025-01-06 22:00:00+00:00,2025-01-06 22:00:00+00:00,2025-01-06 21:26:24+00:00,South VI,48.422543,-123.506657,200065,1.9567368936525664,COLWOOD,LANGFORD,SUBSTATION,IN SERVICE,48.44,-123.51
2533559,2507507.0,1812901382,Oak Bay,"2700 - 2800 block CADBORO BAY RD, 2200 block NEIL ST",Planned work being done on our equipment,11,2025-01-06 18:35:00+00:00,2025-01-06 18:31:28+00:00,2025-01-06 23:10:11+00:00,2025-01-07 00:00:00+00:00,2025-01-07 00:00:00+00:00,2025-01-06 18:32:48+00:00,South VI,48.441647,-123.313305,200068,4.186169036606556,HORSEY,VICTORIA,SUBSTATION,IN SERVICE,48.44,-123.37
2533561,2507509.0,1812901382,North Saanich,9000 block ARDMORE DR,Under investigation,1,2025-01-06 19:45:00+00:00,2025-01-06 18:32:00+00:00,2025-01-06 20:09:42+00:00,,,2025-01-06 19:08:07+00:00,South VI,48.626552,-123.47861,200071,4.324474591878386,SIDNEY,NORTH SAANICH,SUBSTATION,IN SERVICE,48.63,-123.42
2533563,2507511.0,521980323,"Delta, Richmond",23200 block FRASERWOOD WAY,Planned work being done on our equipment,27,,2025-01-06 18:34:28+00:00,2025-01-06 20:26:13+00:00,2025-01-06 20:00:00+00:00,2025-01-06 20:00:00+00:00,2025-01-06 18:36:42+00:00,Lower Mainland,49.172432,-122.964048,200102,1.0564769688452746,GVRD SEWAGE,NOT AVAILABLE,SUBSTATION,IN SERVICE,49.17,-122.95
2533564,2507512.0,521980323,Richmond,10500 - 10700 block ROSEBROOK RD,Planned work being done on our equipment,18,2025-01-06 18:40:00+00:00,2025-01-06 18:36:31+00:00,2025-01-07 02:13:36+00:00,2025-01-07 01:00:00+00:00,2025-01-07 01:00:00+00:00,2025-01-06 23:03:40+00:00,Lower Mainland,49.136079,-123.126161,200082,1.861480802709825,STEVESTON,NOT AVAILABLE,SUBSTATION,IN SERVICE,49.13,-123.15
2533565,2507513.0,1812901382,Sidney,9700 block THIRD ST,Planned work being done on our equipment,16,2025-01-06 18:40:00+00:00,2025-01-06 18:37:50+00:00,2025-01-06 19:32:52+00:00,2025-01-06 19:30:00+00:00,2025-01-06 19:30:00+00:00,2025-01-06 18:59:54+00:00,South VI,48.648322,-123.397802,200071,2.6097857190844893,SIDNEY,NORTH SAANICH,SUBSTATION,IN SERVICE,48.63,-123.42
2533566,2507514.0,521980323,Langley,8800 block 204B ST,Planned work being done on our equipment,2,2025-01-06 18:55:00+00:00,2025-01-06 18:38:11+00:00,2025-01-06 22:47:10+00:00,2025-01-07 01:00:00+00:00,2025-01-07 01:00:00+00:00,2025-01-06 19:58:31+00:00,Lower Mainland,49.164076,-122.654631,200148,1.8023896759351141,UNKNOWN200148,LANGLEY TWP,SUBSTATION,IN SERVICE,49.18,-122.65
2533572,2507520.0,521980323,Abbotsford,"North of TRANS CANADA HWY, East of BAYNES ST, West of BEATTY RD, South of 56TH AVE",Planned work being done on our equipment,24,2025-01-06 19:05:00+00:00,2025-01-06 18:47:00+00:00,2025-01-06 22:09:41+00:00,2025-01-06 22:00:00+00:00,2025-01-06 22:00:00+00:00,2025-01-06 19:58:35+00:00,Lower Mainland,49.093073,-122.448076,200145,2.467834338783846,GLOUCESTER,NOT AVAILABLE,SUBSTATION,IN SERVICE,49.11,-122.47
2533573,2507521.0,521980323,Delta,"South of 91ST AVE, West of FIRCREST DR, North of 90TH AVE, East of 116TH ST",Under investigation,28,2025-01-06 19:55:00+00:00,2025-01-06 19:01:00+00:00,2025-01-06 20:26:13+00:00,,,2025-01-06 19:51:29+00:00,Lower Mainland,49.167942,-122.897456,200014,1.4462001987918298,SCOTT ROAD,SURREY,SUBSTATION,IN SERVICE,49.18,-122.89
2533574,2507522.0,521980323,Hope,"22400 - 22500 block COQUIHALLA HWY, COQUIHALLA HWY &, COQUIHALLA HWY EAST, HWY 5 @ SHYLOCK PIT ORN, 69100 block OTHELLO RD, HWY 5 & JESSICA ORN, OTHELLO RD 25 PE, HWY 5 @ SOWAQUA ORN, HWY 5 @ OTHELLO RD ORN, HWY 5 ORN...",Planned work being done on our equipment,30,2025-01-06 19:05:00+00:00,2025-01-06 19:02:10+00:00,2025-01-06 21:24:42+00:00,2025-01-06 21:00:00+00:00,2025-01-06 21:00:00+00:00,2025-01-06 19:58:39+00:00,Lower Mainland,49.455614,-121.262988,202404,14.525863204542315,AMERICAN CREEK CAPACITOR STATION,NOT AVAILABLE,SUBSTATION,IN SERVICE,49.43,-121.46
2533575,2507523.0,521980323,Coquitlam,1100 block HOWSE PL,Planned work being done on our equipment,4,2025-01-06 19:10:00+00:00,2025-01-06 19:04:13+00:00,2025-01-06 23:32:59+00:00,2025-01-06 23:30:00+00:00,2025-01-06 23:30:00+00:00,2025-01-06 22:59:52+00:00,Lower Mainland,49.245682,-122.859139,202056,1.744878898832833,UNKNOWN202056,COQUITLAM,SUBSTATION,IN SERVICE,49.23,-122.86
2533586,2507534.0,521980323,Sechelt,3400 block MCNAIR FOREST SERVICE RD,Planned work being done on our equipment,1,2025-01-06 19:20:00+00:00,2025-01-06 19:17:45+00:00,2025-01-06 21:09:30+00:00,2025-01-06 21:00:00+00:00,2025-01-06 21:00:00+00:00,2025-01-06 19:19:07+00:00,Lower Mainland,49.506126,-123.497373,200160,1.6319696517349562,HOWE SOUND PULP,NOT AVAILABLE,SUBSTATION,IN SERVICE,49.52,-123.49
2533621,2507569.0,521980323,Abbotsford,2200 block MCDERMOTT RD,Bird contacting our wires,2,2025-01-06 20:20:00+00:00,2025-01-06 19:46:21+00:00,2025-01-06 20:33:56+00:00,2025-01-06 20:45:00+00:00,2025-01-06 20:45:00+00:00,2025-01-06 20:22:09+00:00,Lower Mainland,49.045978,-122.156408,200169,1.5809950364599268,TRANS MOUNTAIN,NOT AVAILABLE,SUBSTATION,IN SERVICE,49.06,-122.16
2533623,2507571.0,521980323,Richmond,8600 block RAILWAY AVE,Planned work being done on our equipment,19,2025-01-06 19:55:00+00:00,2025-01-06 19:48:06+00:00,2025-01-06 21:24:42+00:00,2025-01-06 22:30:00+00:00,2025-01-06 22:30:00+00:00,2025-01-06 19:52:06+00:00,Lower Mainland,49.150021,-123.169152,201835,2.3619604270565686,UNKNOWN201835,RICHMOND,SUBSTATION,IN SERVICE,49.13,-123.18
2533654,2507602.0,521980323,Sechelt,12900 block SUN CST HWY,Under investigation,2,2025-01-06 21:00:00+00:00,2025-01-06 20:18:00+00:00,2025-01-06 21:47:04+00:00,2025-01-06 22:00:00+00:00,2025-01-06 22:00:00+00:00,2025-01-06 21:18:50+00:00,Lower Mainland,49.625313,-123.999891,200151,5.73927260580588,MALASPINA,NOT AVAILABLE,SUBSTATION,IN SERVICE,49.67,-123.96
2533751,2507699.0,521980323,Richmond,9600 block STEVESTON HWY,Planned work being done on our equipment,21,2025-01-06 20:50:00+00:00,2025-01-06 20:45:35+00:00,2025-01-06 22:09:41+00:00,2025-01-06 23:00:00+00:00,2025-01-06 23:00:00+00:00,2025-01-06 20:47:49+00:00,Lower Mainland,49.13365,-123.119936,200082,2.2247059781973153,STEVESTON,NOT AVAILABLE,SUBSTATION,IN SERVICE,49.13,-123.15
2533753,2507701.0,1602964060,Dawson Creek,3200 block 212 RD,Motor vehicle accident,1,2025-01-06 22:20:00+00:00,2025-01-06 20:49:50+00:00,2025-01-06 22:47:10+00:00,2025-01-06 23:00:00+00:00,2025-01-06 23:00:00+00:00,2025-01-06 22:17:10+00:00,Northern,55.810086,-120.333582,200268,5.687473747735624,DAWSON CREEK,NOT AVAILABLE,SUBSTATION,IN SERVICE,55.78,-120.26
2533755,2507703.0,521980323,Sechelt,2300 block LOWER RD,Planned work being done on our equipment,3,2025-01-06 20:55:00+00:00,2025-01-06 20:50:05+00:00,2025-01-06 22:09:41+00:00,2025-01-06 22:00:00+00:00,2025-01-06 22:00:00+00:00,2025-01-06 20:51:44+00:00,Lower Mainland,49.412316,-123.601703,200159,6.639373125726535,GIBSONS,NOT AVAILABLE,SUBSTATION,IN SERVICE,49.41,-123.51
2533805,2507753.0,521980323,Sechelt,13600 block CAMP BURLEY RD,Under investigation,6,,2025-01-06 21:04:00+00:00,2025-01-06 21:24:42+00:00,,,2025-01-06 21:08:42+00:00,Lower Mainland,49.648148,-124.044708,200151,6.563629333584315,MALASPINA,NOT AVAILABLE,SUBSTATION,IN SERVICE,49.67,-123.96
2533806,2507754.0,725364552,Kamloops,4000 block FORESTRY RD,Under investigation,1,2025-01-06 22:25:00+00:00,2025-01-06 21:06:00+00:00,2025-01-06 23:10:11+00:00,,,2025-01-06 22:23:46+00:00,Thompson/Shuswap,50.619817,-119.821743,200304,11.173786228427556,MONTE LAKE,NOT AVAILABLE,SUBSTATION,IN SERVICE,50.52,-119.84
2533814,2507762.0,521980323,Abbotsford,32900 block MILL LAKE RD,Cable fault,1,2025-01-07 01:10:00+00:00,2025-01-06 21:25:00+00:00,2025-01-07 02:57:36+00:00,2025-01-07 03:00:00+00:00,2025-01-07 03:00:00+00:00,2025-01-07 01:06:31+00:00,Lower Mainland,49.047246,-122.311839,200150,2.131652744721593,ABBOTSFORD,ABBOTSFORD,SUBSTATION,IN SERVICE,49.06,-122.29
2533818,2507766.0,521980323,Chilliwack,53100 block YALE RD,Planned work being done on our equipment,1,2025-01-06 21:40:00+00:00,2025-01-06 21:36:59+00:00,2025-01-06 22:29:09+00:00,2025-01-06 23:00:00+00:00,2025-01-06 23:00:00+00:00,2025-01-06 21:38:13+00:00,Lower Mainland,49.185908,-121.756479,200173,1.8314338293560757,ROSEDALE,NOT AVAILABLE,SUBSTATION,IN SERVICE,49.18,-121.78
2533820,2507768.0,848340027,Prince George,2400 block 12TH AVE,Tree down across our wires,1,2025-01-06 22:30:00+00:00,2025-01-06 21:48:00+00:00,2025-01-06 22:29:09+00:00,,,2025-01-06 21:56:52+00:00,Central Interior,53.913222,-122.769714,200203,1.4703386790199926,PATRICIA,PRINCE GEORGE,SUBSTATION,IN SERVICE,53.9,-122.77
2533826,2507774.0,521980323,Chilliwack,41700 block NO 3 RD,Under investigation,1,2025-01-06 22:35:00+00:00,2025-01-06 21:59:00+00:00,2025-01-06 23:25:19+00:00,,,2025-01-06 23:05:53+00:00,Lower Mainland,49.089752,-122.069245,200170,3.3997615069516556,TAP200170,NOT AVAILABLE,TAP,IN SERVICE,49.06,-122.08
2533824,2507772.0,521980323,Sechelt,"1000 - 1100 block KEITH RD, CEMETERY RD P25",Planned work being done on our equipment,12,2025-01-06 22:05:00+00:00,2025-01-06 21:59:09+00:00,2025-01-06 23:25:19+00:00,2025-01-07 00:00:00+00:00,2025-01-07 00:00:00+00:00,2025-01-06 22:59:53+00:00,Lower Mainland,49.422324,-123.526666,200159,1.8252063606266216,GIBSONS,NOT AVAILABLE,SUBSTATION,IN SERVICE,49.41,-123.51
2533851,2507799.0,521980323,Richmond,6200 block UDY RD,Under investigation,1,,2025-01-06 22:19:00+00:00,2025-01-06 23:25:19+00:00,,,2025-01-06 23:03:19+00:00,Lower Mainland,49.160412,-123.155305,200084,1.8406359403443804,RICHMOND,RICHMOND,SUBSTATION,IN SERVICE,49.16,-123.13
2533852,2507800.0,1602896846,Campbell River,West of FOREST GROVE DR,Under investigation,207,2025-01-06 22:45:00+00:00,2025-01-06 22:25:00+00:00,2025-01-07 00:51:15+00:00,2025-01-07 00:00:00+00:00,2025-01-07 00:00:00+00:00,2025-01-06 23:28:24+00:00,North VI,50.016487,-125.356736,200026,2.408521013758885,LADORE FALLS,NOT AVAILABLE,SUBSTATION,IN SERVICE,50.02,-125.39
2533883,2507831.0,521980323,Vancouver,"South of PANDORA ST, West of BOUNDARY RD, North of FRANKLIN ST, East of KOOTENAY ST",Under investigation,19,2025-01-07 16:25:00+00:00,2025-01-06 23:58:00+00:00,2025-01-07 17:12:09+00:00,2025-01-07 17:45:00+00:00,2025-01-07 17:45:00+00:00,2025-01-07 16:38:28+00:00,Lower Mainland,49.282467,-123.024198,200097,1.4193250487337281,HORNE PAYNE,BURNABY,SUBSTATION,IN SERVICE,49.27,-123.02
2533885,2507833.0,521980323,Bowen Island,200 block DAVID RD,Under investigation,1,2025-01-07 02:35:00+00:00,2025-01-07 00:11:00+00:00,2025-01-07 03:19:41+00:00,,,2025-01-07 02:37:39+00:00,Lower Mainland,49.388044,-123.320894,200137,4.300030516400038,HORSESHOE BAY,WEST VANCOUVER,SUBSTATION,IN SERVICE,49.36,-123.28
2533887,2507835.0,521980323,Sechelt,5000 block JOHNSTONE RD,Under investigation,4,2025-01-07 02:50:00+00:00,2025-01-07 00:33:00+00:00,2025-01-07 03:40:38+00:00,2025-01-07 03:50:00+00:00,2025-01-07 03:50:00+00:00,2025-01-07 02:48:12+00:00,Lower Mainland,49.624368,-124.021606,200151,6.7394080727486,MALASPINA,NOT AVAILABLE,SUBSTATION,IN SERVICE,49.67,-123.96
2533906,2507854.0,1602896846,Campbell River,6900 block ARGONAUT RD,Bird contacting our wires,1,2025-01-07 03:20:00+00:00,2025-01-07 01:50:00+00:00,2025-01-07 04:12:21+00:00,,,2025-01-07 03:17:04+00:00,North VI,50.0068,-125.352876,200026,3.031684434464269,LADORE FALLS,NOT AVAILABLE,SUBSTATION,IN SERVICE,50.02,-125.39
2533913,2507861.0,521980323,Surrey,7800 block 192 ST,Tree down across our wires,1,2025-01-07 05:35:00+00:00,2025-01-07 03:59:48+00:00,2025-01-07 06:49:45+00:00,,,2025-01-07 05:32:46+00:00,Lower Mainland,49.145709,-122.689008,200148,4.752225655318695,UNKNOWN200148,LANGLEY TWP,SUBSTATION,IN SERVICE,49.18,-122.65
2533915,2507863.0,521980323,Sechelt,"North-East of MADEIRA PARK RD, West of FRONT RD, South of CLAYDON RD",Under investigation,28,2025-01-07 05:05:00+00:00,2025-01-07 04:09:00+00:00,2025-01-07 05:28:43+00:00,2025-01-07 05:30:00+00:00,2025-01-07 05:30:00+00:00,2025-01-07 05:05:27+00:00,Lower Mainland,49.62322,-124.02243,200151,6.874708527580726,MALASPINA,NOT AVAILABLE,SUBSTATION,IN SERVICE,49.67,-123.96
2533927,2507873.0,1602896846,Nanaimo,"North of QUENNELL RD, South of WHITE RD, East of SCHOOLHOUSE RD",Motor vehicle accident,1089,2025-01-07 11:40:00+00:00,2025-01-07 07:59:25+00:00,2025-01-07 22:09:37+00:00,2025-01-07 22:00:00+00:00,2025-01-07 22:00:00+00:00,2025-01-07 18:11:21+00:00,North VI,49.10818,-123.842257,202386,2.7484830923755,ISLAND PHOENIX,NOT AVAILABLE,SUBSTATION,IN SERVICE,49.13,-123.86
2534412,2508354.0,1602896846,"Ladysmith, Nanaimo","North of EGLINGTON AVE, West of STARLING RD, East of BALSAM RD, South of GORDON RD",Motor vehicle accident,20,2025-01-07 12:30:00+00:00,2025-01-07 12:20:43+00:00,2025-01-07 22:09:37+00:00,2025-01-07 22:00:00+00:00,2025-01-07 22:00:00+00:00,2025-01-07 18:11:30+00:00,North VI,49.108648,-123.869668,200050,2.374357010496474,NEXEN TAP,NOT AVAILABLE,TAP,IN SERVICE,49.13,-123.87
2534431,2508372.0,521980323,Surrey,"300 block 176TH ST, HWY 15 @ 4TH AVE ORN",Motor vehicle accident,2,2025-01-08 06:20:00+00:00,2025-01-07 14:55:00+00:00,2025-01-08 13:18:01+00:00,2025-01-08 12:00:00+00:00,2025-01-08 12:00:00+00:00,2025-01-08 12:28:57+00:00,Lower Mainland,49.007618,-122.73491,200011,4.725761480565676,WHITE ROCK,WHITE ROCK,SUBSTATION,IN SERVICE,49.03,-122.79
2534437,2508378.0,521980323,North Vancouver,300 block W KINGS RD,Under investigation,1,2025-01-07 16:30:00+00:00,2025-01-07 15:04:00+00:00,2025-01-07 18:14:06+00:00,2025-01-07 18:00:00+00:00,2025-01-07 18:00:00+00:00,2025-01-07 16:41:20+00:00,Lower Mainland,49.337323,-123.077402,200131,2.4984823404119827,CAPILANO,NORTH VANCOUVER DISTRICT,SUBSTATION,IN SERVICE,49.33,-123.11
2534439,2508380.0,1602896846,Port Alice,South of PORT ALICE HWY,Equipment failure,671,2025-01-07 20:00:00+00:00,2025-01-07 15:49:41+00:00,2025-01-07 22:09:37+00:00,2025-01-07 23:00:00+00:00,2025-01-07 23:00:00+00:00,2025-01-07 20:17:34+00:00,North VI,50.431861,-127.48905,200017,0.9075131502116245,JEUNE LANDING,NOT AVAILABLE,SUBSTATION,IN SERVICE,50.44,-127.49
2534440,2508381.0,521980323,Coquitlam,500 - 600 block SHAW AVE,Planned work being done on our equipment,12,2025-01-07 16:05:00+00:00,2025-01-07 16:02:50+00:00,2025-01-08 02:12:24+00:00,2025-01-08 02:00:00+00:00,2025-01-08 02:00:00+00:00,2025-01-07 23:33:24+00:00,Lower Mainland,49.244504,-122.887301,200111,1.9541028050703049,BARNARD,BURNABY,SUBSTATION,IN SERVICE,49.26,-122.9
2534442,2508383.0,1602964060,Prince Rupert,1700 block PRINCE RUPERT BLVD,Under investigation,1,2025-01-07 16:55:00+00:00,2025-01-07 16:17:00+00:00,2025-01-07 17:12:09+00:00,,,2025-01-07 16:52:55+00:00,Northern,54.319441,-130.284146,200237,1.9784683876721578,OLDFIELD,PRINCE RUPERT,SUBSTATION,IN SERVICE,54.31,-130.31
2534445,2508386.0,521980323,Burnaby,"West of INGLETON AVE, East of ESMOND AVE, North of TRIUMPH ST, South of DUNDAS ST",Planned work being done on our equipment,22,2025-01-07 16:35:00+00:00,2025-01-07 16:30:41+00:00,2025-01-07 21:09:24+00:00,2025-01-08 02:30:00+00:00,2025-01-08 02:30:00+00:00,2025-01-07 16:33:19+00:00,Lower Mainland,49.284347,-123.019954,200097,1.5953171026656463,HORNE PAYNE,BURNABY,SUBSTATION,IN SERVICE,49.27,-123.02
2534448,2508389.0,521980323,Vancouver,"North of 33RD AVE, East of DUNBAR ST, South of 32ND AVE, West of COLLINGWOOD ST",Planned work being done on our equipment,14,2025-01-07 16:50:00+00:00,2025-01-07 16:46:05+00:00,2025-01-07 19:47:06+00:00,2025-01-08 00:30:00+00:00,2025-01-08 00:30:00+00:00,2025-01-07 16:47:22+00:00,Lower Mainland,49.242822,-123.184559,200091,1.375989496384311,CAMOSUN,VANCOUVER,SUBSTATION,IN SERVICE,49.25,-123.2
2534449,2508390.0,725364552,Kamloops,"900 block STAGE COACH DR, 900 block STAGE COACH RD",Planned work being done on our equipment,9,2025-01-07 16:55:00+00:00,2025-01-07 16:51:23+00:00,2025-01-07 21:09:24+00:00,2025-01-08 00:00:00+00:00,2025-01-08 00:00:00+00:00,2025-01-07 16:52:24+00:00,Thompson/Shuswap,50.725913,-120.364639,200282,2.5137222961797785,BROCKLEHURST,KAMLOOPS,SUBSTATION,IN SERVICE,50.71,-120.39
2534450,2508391.0,521980323,Chilliwack,"45700 block ELIZABETH DR, 3700 block VANCE RD",Planned work being done on our equipment,5,2025-01-07 16:55:00+00:00,2025-01-07 16:53:16+00:00,2025-01-07 20:11:11+00:00,2025-01-07 21:00:00+00:00,2025-01-07 21:00:00+00:00,2025-01-07 17:26:55+00:00,Lower Mainland,49.070384,-121.957968,200168,5.810377747954148,ATCHELITZ,NOT AVAILABLE,SUBSTATION,IN SERVICE,49.11,-122.01
2534451,2508392.0,1602964060,Prince Rupert,"North of GURVICH ST, East of MORESBY AVE, South of PARK AVE, West of SLOAN AVE",Planned work being done on our equipment,357,2025-01-07 16:55:00+00:00,2025-01-07 16:54:47+00:00,2025-01-07 22:29:29+00:00,2025-01-08 00:00:00+00:00,2025-01-08 00:00:00+00:00,2025-01-07 16:55:37+00:00,Northern,54.296726,-130.339508,200237,2.4174329531623457,OLDFIELD,PRINCE RUPERT,SUBSTATION,IN SERVICE,54.31,-130.31
2534454,2508395.0,1812901382,Saanich,2200 block ARBUTUS RD,Planned work being done on our equipment,2,2025-01-07 17:00:00+00:00,2025-01-07 16:57:56+00:00,2025-01-07 23:24:28+00:00,2025-01-08 01:00:00+00:00,2025-01-08 01:00:00+00:00,2025-01-07 17:03:41+00:00,South VI,48.478093,-123.304443,200069,4.193235351237573,GEORGE TRIPP,SAANICH,SUBSTATION,IN SERVICE,48.47,-123.36
2534455,2508396.0,521980323,Vancouver,"North of MARINE DR, East of ALMA ST, West of DUNBAR ST, South of 39TH AVE",Planned work being done on our equipment,38,2025-01-07 17:00:00+00:00,2025-01-07 16:58:36+00:00,2025-01-08 00:51:14+00:00,2025-01-08 01:00:00+00:00,2025-01-08 01:00:00+00:00,2025-01-07 23:00:38+00:00,Lower Mainland,49.23271,-123.186013,200089,1.9127157155943195,GEORGE DICKIE,VANCOUVER,SUBSTATION,IN SERVICE,49.23,-123.16
2534457,2508398.0,1602896846,Port Alberni,"10124 STIRLING ARM CRS, 10100 block STIRLING ARM CRES",Planned work being done on our equipment,6,2025-01-07 17:00:00+00:00,2025-01-07 16:59:07+00:00,2025-01-08 02:12:24+00:00,2025-01-08 00:00:00+00:00,2025-01-08 00:00:00+00:00,2025-01-08 00:31:59+00:00,North VI,49.265158,-124.953599,200040,6.115794923882585,GREAT CENTRAL,NOT AVAILABLE,SUBSTATION,IN SERVICE,49.32,-124.96
2534458,2508399.0,521980323,North Vancouver,"East of REDWOOD ST, South-West of PINEWOOD CRS, North of MCBRIDE ST",Planned work being done on our equipment,12,2025-01-07 17:05:00+00:00,2025-01-07 17:00:48+00:00,2025-01-07 22:47:09+00:00,2025-01-08 02:00:00+00:00,2025-01-08 02:00:00+00:00,2025-01-07 17:03:34+00:00,Lower Mainland,49.319106,-123.110095,200130,0.724776533842576,NORGATE,NORTH VANCOUVER DISTRICT,SUBSTATION,IN SERVICE,49.32,-123.12
2534460,2508401.0,521980323,Abbotsford,3200 block MCCALLUM RD,Planned work being done on our equipment,2,2025-01-07 17:10:00+00:00,2025-01-07 17:07:50+00:00,2025-01-07 19:32:59+00:00,2025-01-07 22:30:00+00:00,2025-01-07 22:30:00+00:00,2025-01-07 17:08:37+00:00,Lower Mainland,49.061032,-122.293531,200150,0.28170666834130603,ABBOTSFORD,ABBOTSFORD,SUBSTATION,IN SERVICE,49.06,-122.29
2534461,2508402.0,725364552,Clinton,South of HWY 97,Planned work being done on our equipment,122,2025-01-07 17:15:00+00:00,2025-01-07 17:13:15+00:00,2025-01-07 21:47:03+00:00,2025-01-08 00:00:00+00:00,2025-01-08 00:00:00+00:00,2025-01-07 17:14:06+00:00,Thompson/Shuswap,51.120348,-121.512506,200180,19.420750231517413,KELLY LAKE,NOT AVAILABLE,SUBSTATION,IN SERVICE,51.02,-121.74
2534463,2508404.0,521980323,Vancouver,800 block W PENDER ST,Planned work being done on our equipment,1,2025-01-07 17:20:00+00:00,2025-01-07 17:15:00+00:00,2025-01-07 20:47:13+00:00,2025-01-07 23:00:00+00:00,2025-01-07 23:00:00+00:00,2025-01-07 17:17:34+00:00,Lower Mainland,49.286001,-123.116129,200093,0.7239494339920766,DAL GRAUER,VANCOUVER,SUBSTATION,IN SERVICE,49.28,-123.12
2534464,2508405.0,521980323,Sechelt,"South of CASCADIA PKY, North-East of STORVOLD RD, West of PORT MELLON HWY",Planned work being done on our equipment,6,2025-01-07 17:20:00+00:00,2025-01-07 17:16:03+00:00,2025-01-07 18:35:15+00:00,2025-01-07 18:30:00+00:00,2025-01-07 18:30:00+00:00,2025-01-07 17:19:06+00:00,Lower Mainland,49.44861,-123.492497,200159,4.475952513275532,GIBSONS,NOT AVAILABLE,SUBSTATION,IN SERVICE,49.41,-123.51
2534465,2508406.0,521980323,Powell River,"East of Powell R-Texada Ferry , South of COURTENAY ST, North-West of MARINE AVE",Planned work being done on our equipment,14,2025-01-07 17:20:00+00:00,2025-01-07 17:17:06+00:00,2025-01-08 00:51:14+00:00,2025-01-08 00:00:00+00:00,2025-01-08 00:00:00+00:00,2025-01-07 23:00:38+00:00,Lower Mainland,49.83602,-124.528619,200152,3.186719493461135,GRIEF POINT,POWELL RIVER,SUBSTATION,IN SERVICE,49.81,-124.51
2534466,2508407.0,1812901382,Mayne Island,"North of CAMPBELL BAY RD, East of Swartz Bay-Fulford Harbour Ferry RD",Planned work being done on our equipment,328,2025-01-07 22:00:00+00:00,2025-01-07 17:20:09+00:00,2025-01-07 22:29:29+00:00,2025-01-07 22:00:00+00:00,2025-01-07 22:00:00+00:00,2025-01-07 21:59:24+00:00,South VI,48.863033,-123.288146,202319,7.40782838594539,UNKNOWN202319,NOT AVAILABLE,SUBSTATION,IN SERVICE,48.91,-123.36
2534467,2508408.0,521980323,Port Coquitlam,1700 block MCLEAN AVE,Planned work being done on our equipment,2,2025-01-07 17:30:00+00:00,2025-01-07 17:24:00+00:00,2025-01-07 23:24:28+00:00,2025-01-07 23:30:00+00:00,2025-01-07 23:30:00+00:00,2025-01-07 23:00:39+00:00,Lower Mainland,49.253486,-122.765804,202218,1.2593933495045533,UNKNOWN202218,PORT COQUITLAM,SUBSTATION,IN SERVICE,49.26,-122.78
2534469,2508410.0,521980323,Langley,3600 - 3700 block 206A ST,Planned work being done on our equipment,13,2025-01-07 17:25:00+00:00,2025-01-07 17:25:25+00:00,2025-01-07 23:24:28+00:00,2025-01-08 01:00:00+00:00,2025-01-08 01:00:00+00:00,2025-01-07 23:01:15+00:00,Lower Mainland,49.069004,-122.652374,200008,3.990840505277858,MCLELLAN,NOT AVAILABLE,SUBSTATION,IN SERVICE,49.1,-122.68
2534470,2508411.0,2072041405,West Kelowna,2300 block BOUCHERIE RD,Planned work being done on our equipment,1,2025-01-07 17:30:00+00:00,2025-01-07 17:28:07+00:00,2025-01-07 22:29:29+00:00,2025-01-07 23:00:00+00:00,2025-01-07 23:00:00+00:00,2025-01-07 17:28:54+00:00,Okanagan/Kootenay,49.868478,-119.552861,200296,5.233014830791315,WESTBANK,WESTBANK,SUBSTATION,IN SERVICE,49.85,-119.62
2534471,2508412.0,521980323,Vancouver,"8400 block ASH ST, 500 block SW MARINE DR",Planned work being done on our equipment,32,2025-01-07 17:35:00+00:00,2025-01-07 17:29:12+00:00,2025-01-08 02:55:02+00:00,2025-01-08 02:00:00+00:00,2025-01-08 02:00:00+00:00,2025-01-08 01:06:14+00:00,Lower Mainland,49.209215,-123.118283,200012,0.15223749294098124,KIDD NO. 1,VANCOUVER,SUBSTATION,IN SERVICE,49.21,-123.12
2534472,2508413.0,2072041405,Vernon,"East of 32ND ST, North of 39TH AVE, South of 41ST AVE, West of 30TH  ST",Planned work being done on our equipment,15,2025-01-07 17:35:00+00:00,2025-01-07 17:35:23+00:00,2025-01-08 00:51:14+00:00,2025-01-08 00:00:00+00:00,2025-01-08 00:00:00+00:00,2025-01-07 23:12:53+00:00,Okanagan/Kootenay,50.271746,-119.2725,200303,3.8696712676557894,VERNON TERMINAL,NOT AVAILABLE,SUBSTATION,IN SERVICE,50.25,-119.23
2534473,2508414.0,521980323,Surrey,19200 block 80 AVE,Motor vehicle accident,1,2025-01-07 18:35:00+00:00,2025-01-07 17:35:31+00:00,2025-01-07 20:27:21+00:00,,,2025-01-07 19:44:59+00:00,Lower Mainland,49.148536,-122.688716,200148,4.490524697333401,UNKNOWN200148,LANGLEY TWP,SUBSTATION,IN SERVICE,49.18,-122.65
2534475,2508416.0,725364552,Salmon Arm,2000 - 2100 block HUBAND RD,Planned work being done on our equipment,17,2025-01-07 17:40:00+00:00,2025-01-07 17:38:16+00:00,2025-01-07 23:09:33+00:00,2025-01-08 00:00:00+00:00,2025-01-08 00:00:00+00:00,2025-01-07 18:28:49+00:00,Thompson/Shuswap,50.867577,-119.405392,200300,22.566806309939086,SALMON ARM,NOT AVAILABLE,SUBSTATION,IN SERVICE,50.69,-119.25
2534477,2508418.0,521980323,Vancouver,"2400 block W 13TH AVE, 2400 block W 12TH AVE",Planned work being done on our equipment,16,2025-01-07 17:45:00+00:00,2025-01-07 17:41:39+00:00,2025-01-07 18:35:15+00:00,2025-01-07 19:00:00+00:00,2025-01-07 19:00:00+00:00,2025-01-07 17:43:05+00:00,Lower Mainland,49.260648,-123.161765,200090,1.4597707017931487,SPERLING,VANCOUVER,SUBSTATION,IN SERVICE,49.25,-123.15
2534484,2508425.0,1602896846,Qualicum Beach,"South of JAY BELL TRL, North of ABBEY RD, West of CANUCK CRS, East of MARTINI WAY",Planned work being done on our equipment,7,2025-01-07 22:05:00+00:00,2025-01-07 17:54:29+00:00,2025-01-07 23:47:02+00:00,2025-01-08 00:00:00+00:00,2025-01-08 00:00:00+00:00,2025-01-07 23:15:15+00:00,North VI,49.302641,-124.563976,202371,9.487492095083647,QUALICUM,NOT AVAILABLE,SUBSTATION,IN SERVICE,49.33,-124.44
2534482,2508423.0,1602896846,Courtenay,"South-West of ANDERTON AVE, North-East of 3RD ST",Planned work being done on our equipment,129,2025-01-07 18:00:00+00:00,2025-01-07 17:55:00+00:00,2025-01-07 22:09:37+00:00,2025-01-07 23:30:00+00:00,2025-01-07 23:30:00+00:00,2025-01-07 18:00:00+00:00,North VI,49.693429,-125.000662,200033,2.1445092285379785,PUNTLEDGE,NOT AVAILABLE,SUBSTATION,IN SERVICE,49.69,-125.03
2534485,2508426.0,725364552,Lillooet,"1199 WHITNEY RD,, 800 - 1100 block WHITNEY RD",Planned work being done on our equipment,7,2025-01-07 18:05:00+00:00,2025-01-07 17:58:58+00:00,2025-01-07 21:47:03+00:00,2025-01-07 23:30:00+00:00,2025-01-07 23:30:00+00:00,2025-01-07 18:00:31+00:00,Thompson/Shuswap,50.681415,-121.902148,200181,1.7870430888655864,SETON LAKE,NOT AVAILABLE,SUBSTATION,IN SERVICE,50.67,-121.92
2534486,2508427.0,521980323,Sechelt,"6100 block MCKAY RD, 13300 - 13500 block SUNVIEW RD",Planned work being done on our equipment,19,2025-01-07 18:00:00+00:00,2025-01-07 17:59:35+00:00,2025-01-07 22:47:09+00:00,2025-01-07 23:00:00+00:00,2025-01-07 23:00:00+00:00,2025-01-07 18:03:03+00:00,Lower Mainland,49.64009,-123.962783,200151,3.3318686379893694,MALASPINA,NOT AVAILABLE,SUBSTATION,IN SERVICE,49.67,-123.96
2534488,2508429.0,725364552,Kamloops,4100 block STEWART RD,Planned work being done on our equipment,4,2025-01-07 18:10:00+00:00,2025-01-07 18:04:33+00:00,2025-01-07 21:33:29+00:00,2025-01-07 22:00:00+00:00,2025-01-07 22:00:00+00:00,2025-01-07 18:14:46+00:00,Thompson/Shuswap,50.685531,-119.819344,200304,18.4638461703938,MONTE LAKE,NOT AVAILABLE,SUBSTATION,IN SERVICE,50.52,-119.84
2534489,2508430.0,521980323,Surrey,19300 block FRASER HWY,Planned work being done on our equipment,8,2025-01-07 18:10:00+00:00,2025-01-07 18:05:41+00:00,2025-01-07 21:09:24+00:00,2025-01-07 21:00:00+00:00,2025-01-07 21:00:00+00:00,2025-01-07 18:06:53+00:00,Lower Mainland,49.11697,-122.68712,200008,1.9568583005660138,MCLELLAN,NOT AVAILABLE,SUBSTATION,IN SERVICE,49.1,-122.68
2534490,2508431.0,1812901382,Sidney,2000 block W HENRY AVE,Planned work being done on our equipment,33,2025-01-07 18:10:00+00:00,2025-01-07 18:05:52+00:00,2025-01-07 18:35:15+00:00,2025-01-07 19:00:00+00:00,2025-01-07 19:00:00+00:00,2025-01-07 18:07:35+00:00,South VI,48.652483,-123.413114,200071,2.550677987002788,SIDNEY,NORTH SAANICH,SUBSTATION,IN SERVICE,48.63,-123.42
2534493,2508434.0,1602896846,Campbell River,900 block S ISLAND HWY,Planned work being done on our equipment,4,2025-01-07 18:15:00+00:00,2025-01-07 18:10:52+00:00,2025-01-08 02:12:24+00:00,2025-01-08 00:30:00+00:00,2025-01-08 00:30:00+00:00,2025-01-07 23:15:14+00:00,North VI,49.990074,-125.226687,200029,3.7214233174821536,CAMPBELL RIVER,CAMPBELL RIVER,SUBSTATION,IN SERVICE,50.02,-125.25
2534495,2508436.0,521980323,Bowen Island,700 block GRAFTON RD,Planned work being done on our equipment,7,2025-01-07 18:20:00+00:00,2025-01-07 18:14:55+00:00,2025-01-07 23:32:51+00:00,2025-01-08 00:00:00+00:00,2025-01-08 00:00:00+00:00,2025-01-07 23:00:39+00:00,Lower Mainland,49.372312,-123.357587,200137,5.782673893361769,HORSESHOE BAY,WEST VANCOUVER,SUBSTATION,IN SERVICE,49.36,-123.28
2534497,2508438.0,521980323,Vancouver,2200 block VANNESS AVE,Planned work being done on our equipment,5,2025-01-07 18:20:00+00:00,2025-01-07 18:17:44+00:00,2025-01-08 02:12:24+00:00,2025-01-08 00:30:00+00:00,2025-01-08 00:30:00+00:00,2025-01-07 23:00:39+00:00,Lower Mainland,49.249489,-123.0595,200098,2.6289125307496977,MAINWARING,VANCOUVER,SUBSTATION,IN SERVICE,49.23,-123.08
2534499,2508440.0,521980323,Sechelt,800 block NORTH RD,Planned work being done on our equipment,2,2025-01-07 18:20:00+00:00,2025-01-07 18:18:55+00:00,2025-01-07 19:08:05+00:00,2025-01-07 19:30:00+00:00,2025-01-07 19:30:00+00:00,2025-01-07 18:21:18+00:00,Lower Mainland,49.415298,-123.515412,200159,0.707350320952127,GIBSONS,NOT AVAILABLE,SUBSTATION,IN SERVICE,49.41,-123.51
2534500,2508441.0,1812901382,Duncan,"MCLAY RD/BARN, 4900 block MCLAY RD",Planned work being done on our equipment,16,2025-01-07 18:25:00+00:00,2025-01-07 18:20:37+00:00,2025-01-07 21:47:03+00:00,2025-01-07 23:00:00+00:00,2025-01-07 23:00:00+00:00,2025-01-07 19:40:57+00:00,South VI,48.750047,-123.726608,200058,1.2177192164779944,KOKSILAH TAP,NOT AVAILABLE,TAP,IN SERVICE,48.74,-123.72
